{
  "110001": {
    "place": "Parliament House",
    "state": "Delhi",
    "province": "Central Delhi",
    "community": "New Delhi",
    "latitude": "28.6407",
    "longitude": "77.2154",
    "country": "India"
  },
  "110002": {
    "place": "Indraprastha H.O",
    "state": "Delhi",
    "province": "Central Delhi",
    "community": "New Delhi",
    "latitude": "28.6453",
    "longitude": "77.2456",
    "country": "India"
  },
  "110003": {
    "place": "Aliganj",
    "state": "Delhi",
    "province": "South Delhi",
    "community": "New Delhi",
    "latitude": "28.5838",
    "longitude": "77.2218",
    "country": "India"
  },
  "110004": {
    "place": "Rashtrapati Bhawan",
    "state": "Delhi",
    "province": "Central Delhi",
    "community": "New Delhi",
    "latitude": "28.6455",
    "longitude": "77.205",
    "country": "India"
  },
  "110005": {
    "place": "Karol Bagh",
    "state": "Delhi",
    "province": "Central Delhi",
    "community": "New Delhi",
    "latitude": "28.6514",
    "longitude": "77.1907",
    "country": "India"
  },
  "110006": {
    "place": "Jama Masjid",
    "state": "Delhi",
    "province": "Central Delhi",
    "community": "Delhi",
    "latitude": "28.6455",
    "longitude": "77.205",
    "country": "India"
  },
  "110007": {
    "place": "Gulabi Bagh",
    "state": "Delhi",
    "province": "North Delhi",
    "community": "Delhi",
    "latitude": "28.6764",
    "longitude": "77.2074",
    "country": "India"
  },
  "110008": {
    "place": "Patel Nagar West",
    "state": "Delhi",
    "province": "Central Delhi",
    "community": "New Delhi",
    "latitude": "28.6466",
    "longitude": "77.1701",
    "country": "India"
  },
  "110009": {
    "place": "Nirankari Colony",
    "state": "Delhi",
    "province": "North West Delhi",
    "community": "Delhi",
    "latitude": "28.7121",
    "longitude": "77.206",
    "country": "India"
  },
  "110010": {
    "place": "R R Hospital",
    "state": "Delhi",
    "province": "South West Delhi",
    "community": "NA",
    "latitude": "28.5724",
    "longitude": "77.0274",
    "country": "India"
  },
  "110011": {
    "place": "Nirman Bhawan",
    "state": "Delhi",
    "province": "Central Delhi",
    "community": "New Delhi",
    "latitude": "28.6431",
    "longitude": "77.2197",
    "country": "India"
  },
  "110012": {
    "place": "I.A.R.I.",
    "state": "Delhi",
    "province": "Central Delhi",
    "community": "New Delhi",
    "latitude": "28.6431",
    "longitude": "77.2197",
    "country": "India"
  },
  "110013": {
    "place": "Hazrat Nizamuddin",
    "state": "Delhi",
    "province": "South Delhi",
    "community": "New Delhi",
    "latitude": "28.5878",
    "longitude": "77.2541",
    "country": "India"
  },
  "110014": {
    "place": "Jungpura",
    "state": "Delhi",
    "province": "South Delhi",
    "community": "New Delhi",
    "latitude": "28.5014",
    "longitude": "77.2274",
    "country": "India"
  },
  "110015": {
    "place": "ESI",
    "state": "Delhi",
    "province": "West Delhi",
    "community": "New Delhi",
    "latitude": "28.6553",
    "longitude": "77.0657",
    "country": "India"
  },
  "110016": {
    "place": "Green Park Market",
    "state": "Delhi",
    "province": "South West Delhi",
    "community": "NA",
    "latitude": "28.5531",
    "longitude": "77.1916",
    "country": "India"
  },
  "110017": {
    "place": "MMTC/STC Colony",
    "state": "Delhi",
    "province": "South Delhi",
    "community": "New Delhi",
    "latitude": "28.5189",
    "longitude": "77.2131",
    "country": "India"
  },
  "110018": {
    "place": "Tilak Nagar",
    "state": "Delhi",
    "province": "West Delhi",
    "community": "New Delhi",
    "latitude": "28.6396",
    "longitude": "77.0884",
    "country": "India"
  },
  "110019": {
    "place": "Kalkaji H.O",
    "state": "Delhi",
    "province": "South Delhi",
    "community": "New Delhi",
    "latitude": "28.5014",
    "longitude": "77.2274",
    "country": "India"
  },
  "110020": {
    "place": "C R R I",
    "state": "Delhi",
    "province": "South Delhi",
    "community": "New Delhi",
    "latitude": "28.5345",
    "longitude": "77.2779",
    "country": "India"
  },
  "110021": {
    "place": "Moti Bagh",
    "state": "Delhi",
    "province": "South West Delhi",
    "community": "NA",
    "latitude": "28.5818",
    "longitude": "77.1793",
    "country": "India"
  },
  "110022": {
    "place": "R K Puram Sector - 6 Postal SB",
    "state": "Delhi",
    "province": "South West Delhi",
    "community": "NA",
    "latitude": "28.5724",
    "longitude": "77.0274",
    "country": "India"
  },
  "110023": {
    "place": "Netaji Nagar",
    "state": "Delhi",
    "province": "South West Delhi",
    "community": "NA",
    "latitude": "28.5724",
    "longitude": "77.0274",
    "country": "India"
  },
  "110024": {
    "place": "Defence Colony",
    "state": "Delhi",
    "province": "South Delhi",
    "community": "New Delhi",
    "latitude": "28.5714",
    "longitude": "77.2327",
    "country": "India"
  },
  "110025": {
    "place": "Sukhdev Vihar",
    "state": "Delhi",
    "province": "South Delhi",
    "community": "New Delhi",
    "latitude": "28.5672",
    "longitude": "77.2725",
    "country": "India"
  },
  "110026": {
    "place": "Ashoka Park Extn.",
    "state": "Delhi",
    "province": "West Delhi",
    "community": "New Delhi",
    "latitude": "28.6709",
    "longitude": "77.141",
    "country": "India"
  },
  "110027": {
    "place": "Subhash Nagar West",
    "state": "Delhi",
    "province": "West Delhi",
    "community": "New Delhi",
    "latitude": "28.6553",
    "longitude": "77.0657",
    "country": "India"
  },
  "110028": {
    "place": "Naraina Industrial Estate H.O",
    "state": "Delhi",
    "province": "South West Delhi",
    "community": "New Delhi",
    "latitude": "28.5724",
    "longitude": "77.0274",
    "country": "India"
  },
  "110029": {
    "place": "Ansari Nagar",
    "state": "Delhi",
    "province": "South West Delhi",
    "community": "NA",
    "latitude": "28.565",
    "longitude": "77.1972",
    "country": "India"
  },
  "110030": {
    "place": "Mehrauli",
    "state": "Delhi",
    "province": "South West Delhi",
    "community": "NA",
    "latitude": "28.52",
    "longitude": "77.1803",
    "country": "India"
  },
  "110031": {
    "place": "Shastri Nagar",
    "state": "Delhi",
    "province": "East Delhi",
    "community": "NA",
    "latitude": "28.6548",
    "longitude": "77.2752",
    "country": "India"
  },
  "110032": {
    "place": "Goverdhan Bihari Colony",
    "state": "Delhi",
    "province": "East Delhi",
    "community": "NA",
    "latitude": "28.6292",
    "longitude": "77.298",
    "country": "India"
  },
  "110033": {
    "place": "Bhalaswa",
    "state": "Delhi",
    "province": "North West Delhi",
    "community": "Delhi",
    "latitude": "28.716",
    "longitude": "77.1429",
    "country": "India"
  },
  "110034": {
    "place": "Shakur Pur I  Block",
    "state": "Delhi",
    "province": "North West Delhi",
    "community": "Delhi",
    "latitude": "28.716",
    "longitude": "77.1429",
    "country": "India"
  },
  "110035": {
    "place": "Sarai Rohilla",
    "state": "Delhi",
    "province": "North West Delhi",
    "community": "Delhi",
    "latitude": "28.6772",
    "longitude": "77.1573",
    "country": "India"
  },
  "110036": {
    "place": "Tajpur Kalan",
    "state": "Delhi",
    "province": "North West Delhi",
    "community": "Delhi",
    "latitude": "28.8381",
    "longitude": "77.17",
    "country": "India"
  },
  "110037": {
    "place": "Gurgaon Road",
    "state": "Delhi",
    "province": "South West Delhi",
    "community": "NA",
    "latitude": "28.548",
    "longitude": "77.1133",
    "country": "India"
  },
  "110038": {
    "place": "A F Rajokari",
    "state": "Delhi",
    "province": "South West Delhi",
    "community": "NA",
    "latitude": "28.5724",
    "longitude": "77.0274",
    "country": "India"
  },
  "110039": {
    "place": "Ghoga",
    "state": "Delhi",
    "province": "North West Delhi",
    "community": "Delhi",
    "latitude": "28.8311",
    "longitude": "77.05",
    "country": "India"
  },
  "110040": {
    "place": "Kanya Gurukul",
    "state": "Delhi",
    "province": "North West Delhi",
    "community": "Delhi",
    "latitude": "28.8408",
    "longitude": "77.0939",
    "country": "India"
  },
  "110041": {
    "place": "Ranhola",
    "state": "Delhi",
    "province": "West Delhi",
    "community": "New Delhi",
    "latitude": "28.6592",
    "longitude": "77.0382",
    "country": "India"
  },
  "110042": {
    "place": "Siraspur",
    "state": "Delhi",
    "province": "North West Delhi",
    "community": "Delhi",
    "latitude": "28.7581",
    "longitude": "77.1309",
    "country": "India"
  },
  "110043": {
    "place": "Daulatpur",
    "state": "Delhi",
    "province": "South West Delhi",
    "community": "New Delhi",
    "latitude": "28.5466",
    "longitude": "76.9593",
    "country": "India"
  },
  "110044": {
    "place": "Molarband",
    "state": "Delhi",
    "province": "South Delhi",
    "community": "New Delhi",
    "latitude": "28.5029",
    "longitude": "77.3144",
    "country": "India"
  },
  "110045": {
    "place": "Dabri",
    "state": "Delhi",
    "province": "South West Delhi",
    "community": "New Delhi",
    "latitude": "28.6099",
    "longitude": "77.0865",
    "country": "India"
  },
  "110046": {
    "place": "Sagarpur",
    "state": "Delhi",
    "province": "South West Delhi",
    "community": "New Delhi",
    "latitude": "28.5921",
    "longitude": "77.1056",
    "country": "India"
  },
  "110047": {
    "place": "Arjungarh",
    "state": "Delhi",
    "province": "South West Delhi",
    "community": "NA",
    "latitude": "28.5724",
    "longitude": "77.0274",
    "country": "India"
  },
  "110048": {
    "place": "Kailash Colony",
    "state": "Delhi",
    "province": "South Delhi",
    "community": "New Delhi",
    "latitude": "28.5589",
    "longitude": "77.2531",
    "country": "India"
  },
  "110049": {
    "place": "Sahpurjat",
    "state": "Delhi",
    "province": "South Delhi",
    "community": "New Delhi",
    "latitude": "28.5014",
    "longitude": "77.2274",
    "country": "India"
  },
  "110050": {
    "place": "Safdarjung Sorting Delivery Office",
    "state": "Delhi",
    "province": "South Delhi",
    "community": "South Delhi",
    "latitude": "28.5014",
    "longitude": "77.2274",
    "country": "India"
  },
  "110051": {
    "place": "Ram Nagar",
    "state": "Delhi",
    "province": "East Delhi",
    "community": "NA",
    "latitude": "28.6292",
    "longitude": "77.298",
    "country": "India"
  },
  "110052": {
    "place": "Ashok Vihar H.O",
    "state": "Delhi",
    "province": "North West Delhi",
    "community": "Delhi",
    "latitude": "28.7688",
    "longitude": "77.0869",
    "country": "India"
  },
  "110053": {
    "place": "Seelampur",
    "state": "Delhi",
    "province": "East Delhi",
    "community": "NA",
    "latitude": "28.6708",
    "longitude": "77.2721",
    "country": "India"
  },
  "110054": {
    "place": "Civil Lines",
    "state": "Delhi",
    "province": "North Delhi",
    "community": "Delhi",
    "latitude": "28.6804",
    "longitude": "77.2263",
    "country": "India"
  },
  "110055": {
    "place": "Pahar Ganj",
    "state": "Delhi",
    "province": "Central Delhi",
    "community": "New Delhi",
    "latitude": "28.6417",
    "longitude": "77.2132",
    "country": "India"
  },
  "110056": {
    "place": "New Multan Nagar",
    "state": "Delhi",
    "province": "North West Delhi",
    "community": "Delhi",
    "latitude": "28.7688",
    "longitude": "77.0869",
    "country": "India"
  },
  "110057": {
    "place": "Vasant Vihar-2",
    "state": "Delhi",
    "province": "South West Delhi",
    "community": "NA",
    "latitude": "28.5724",
    "longitude": "77.0274",
    "country": "India"
  },
  "110058": {
    "place": "Jail Road",
    "state": "Delhi",
    "province": "West Delhi",
    "community": "New Delhi",
    "latitude": "28.6553",
    "longitude": "77.0657",
    "country": "India"
  },
  "110059": {
    "place": "Sanjay Enclave",
    "state": "Delhi",
    "province": "West Delhi",
    "community": "New Delhi",
    "latitude": "28.6553",
    "longitude": "77.0657",
    "country": "India"
  },
  "110060": {
    "place": "Rajender Nagar",
    "state": "Delhi",
    "province": "Central Delhi",
    "community": "New Delhi",
    "latitude": "28.6431",
    "longitude": "77.2197",
    "country": "India"
  },
  "110061": {
    "place": "Shahbad Mohammadpur",
    "state": "Delhi",
    "province": "South West Delhi",
    "community": "NA",
    "latitude": "28.5346",
    "longitude": "77.0536",
    "country": "India"
  },
  "110062": {
    "place": "BSF Camp Tigri",
    "state": "Delhi",
    "province": "South Delhi",
    "community": "New Delhi",
    "latitude": "28.508",
    "longitude": "77.2294",
    "country": "India"
  },
  "110063": {
    "place": "Madipur Slum Quarter",
    "state": "Delhi",
    "province": "West Delhi",
    "community": "New Delhi",
    "latitude": "28.6553",
    "longitude": "77.0657",
    "country": "India"
  },
  "110064": {
    "place": "Mayapuri Shopping Centre",
    "state": "Delhi",
    "province": "South West Delhi",
    "community": "New Delhi",
    "latitude": "28.5724",
    "longitude": "77.0274",
    "country": "India"
  },
  "110065": {
    "place": "Nehru Nagar",
    "state": "Delhi",
    "province": "South Delhi",
    "community": "New Delhi",
    "latitude": "28.5619",
    "longitude": "77.2553",
    "country": "India"
  },
  "110066": {
    "place": "R K Puram West",
    "state": "Delhi",
    "province": "South West Delhi",
    "community": "NA",
    "latitude": "28.5724",
    "longitude": "77.0274",
    "country": "India"
  },
  "110067": {
    "place": "Munirka",
    "state": "Delhi",
    "province": "South West Delhi",
    "community": "NA",
    "latitude": "28.5553",
    "longitude": "77.1743",
    "country": "India"
  },
  "110068": {
    "place": "Ignou",
    "state": "Delhi",
    "province": "South West Delhi",
    "community": "NA",
    "latitude": "28.5724",
    "longitude": "77.0274",
    "country": "India"
  },
  "110069": {
    "place": "Union Public Service Commission",
    "state": "Delhi",
    "province": "Central Delhi",
    "community": "New Delhi",
    "latitude": "28.6431",
    "longitude": "77.2197",
    "country": "India"
  },
  "110070": {
    "place": "Vasant Kunj",
    "state": "Delhi",
    "province": "South West Delhi",
    "community": "NA",
    "latitude": "28.5439",
    "longitude": "77.1523",
    "country": "India"
  },
  "110071": {
    "place": "Kangan Heri",
    "state": "Delhi",
    "province": "South West Delhi",
    "community": "New Delhi",
    "latitude": "28.5458",
    "longitude": "77.0784",
    "country": "India"
  },
  "110072": {
    "place": "CRPF Jharoda Kalan",
    "state": "Delhi",
    "province": "South West Delhi",
    "community": "NA",
    "latitude": "28.6526",
    "longitude": "76.9521",
    "country": "India"
  },
  "110073": {
    "place": "Raota",
    "state": "Delhi",
    "province": "South West Delhi",
    "community": "New Delhi",
    "latitude": "28.5232",
    "longitude": "76.9019",
    "country": "India"
  },
  "110074": {
    "place": "Satbari",
    "state": "Delhi",
    "province": "South West Delhi",
    "community": "NA",
    "latitude": "28.5724",
    "longitude": "77.0274",
    "country": "India"
  },
  "110075": {
    "place": "District Court Complex Dwarka",
    "state": "Delhi",
    "province": "South West Delhi",
    "community": "Delhi",
    "latitude": "28.5458",
    "longitude": "77.0784",
    "country": "India"
  },
  "110076": {
    "place": "Ali",
    "state": "Delhi",
    "province": "South Delhi",
    "community": "New Delhi",
    "latitude": "28.5161",
    "longitude": "77.3099",
    "country": "India"
  },
  "110077": {
    "place": "Raj Nagar - II",
    "state": "Delhi",
    "province": "South West Delhi",
    "community": "New Delhi",
    "latitude": "28.5458",
    "longitude": "77.0784",
    "country": "India"
  },
  "110078": {
    "place": "N.S.I.T. Dwarka",
    "state": "Delhi",
    "province": "South West Delhi",
    "community": "New Delhi",
    "latitude": "28.6081",
    "longitude": "77.0193",
    "country": "India"
  },
  "110080": {
    "place": "Sangam Vihar",
    "state": "Delhi",
    "province": "South Delhi",
    "community": "South Delhi",
    "latitude": "28.5014",
    "longitude": "77.2274",
    "country": "India"
  },
  "110081": {
    "place": "Gheora",
    "state": "Delhi",
    "province": "North West Delhi",
    "community": "Delhi",
    "latitude": "28.6941",
    "longitude": "77.0016",
    "country": "India"
  },
  "110082": {
    "place": "Naya Bans",
    "state": "Delhi",
    "province": "North West Delhi",
    "community": "Delhi",
    "latitude": "28.7848",
    "longitude": "77.1046",
    "country": "India"
  },
  "110083": {
    "place": "Mangolpuri I  Block",
    "state": "Delhi",
    "province": "North West Delhi",
    "community": "Delhi",
    "latitude": "28.7441",
    "longitude": "77.0732",
    "country": "India"
  },
  "110084": {
    "place": "Nathupura Village",
    "state": "Delhi",
    "province": "New Delhi",
    "community": "New Delhi",
    "latitude": "28.6109",
    "longitude": "77.214",
    "country": "India"
  },
  "110085": {
    "place": "Avantika",
    "state": "Delhi",
    "province": "North Delhi",
    "community": "NA",
    "latitude": "28.7106",
    "longitude": "77.2115",
    "country": "India"
  },
  "110086": {
    "place": "Kirari Suleman Nagar",
    "state": "Delhi",
    "province": "North Delhi",
    "community": "Delhi",
    "latitude": "28.7106",
    "longitude": "77.2115",
    "country": "India"
  },
  "110087": {
    "place": "Sunder Vihar",
    "state": "Delhi",
    "province": "West Delhi",
    "community": "New Delhi",
    "latitude": "28.6553",
    "longitude": "77.0657",
    "country": "India"
  },
  "110088": {
    "place": "Shalamar",
    "state": "Delhi",
    "province": "North West Delhi",
    "community": "Delhi",
    "latitude": "28.7219",
    "longitude": "77.159",
    "country": "India"
  },
  "110089": {
    "place": "Rohini Sector 15",
    "state": "Delhi",
    "province": "North West Delhi",
    "community": "NA",
    "latitude": "28.7441",
    "longitude": "77.0732",
    "country": "India"
  },
  "110090": {
    "place": "Karawal Nagar",
    "state": "Delhi",
    "province": "East Delhi",
    "community": "NA",
    "latitude": "28.6114",
    "longitude": "77.2982",
    "country": "India"
  },
  "110091": {
    "place": "Kalyanpuri",
    "state": "Delhi",
    "province": "East Delhi",
    "community": "NA",
    "latitude": "28.6142",
    "longitude": "77.3162",
    "country": "India"
  },
  "110092": {
    "place": "Shakarpur",
    "state": "Delhi",
    "province": "East Delhi",
    "community": "NA",
    "latitude": "28.6266",
    "longitude": "77.2794",
    "country": "India"
  },
  "110093": {
    "place": "Loni Road Housing Complex",
    "state": "Delhi",
    "province": "East Delhi",
    "community": "NA",
    "latitude": "28.6114",
    "longitude": "77.2982",
    "country": "India"
  },
  "110094": {
    "place": "Johripur",
    "state": "Delhi",
    "province": "East Delhi",
    "community": "NA",
    "latitude": "28.6114",
    "longitude": "77.2982",
    "country": "India"
  },
  "110095": {
    "place": "G.T.B. Hospital",
    "state": "Delhi",
    "province": "East Delhi",
    "community": "NA",
    "latitude": "28.6114",
    "longitude": "77.2982",
    "country": "India"
  },
  "110096": {
    "place": "Ghazipur",
    "state": "Delhi",
    "province": "East Delhi",
    "community": "NA",
    "latitude": "28.6114",
    "longitude": "77.2982",
    "country": "India"
  },
  "110097": {
    "place": "Kapashera.",
    "state": "Delhi",
    "province": "South West Delhi",
    "community": "NA",
    "latitude": "28.5724",
    "longitude": "77.0274",
    "country": "India"
  },
  "110098": {
    "place": "AMPC Delivery",
    "state": "Delhi",
    "province": "New Delhi",
    "community": "New Delhi",
    "latitude": "28.6109",
    "longitude": "77.214",
    "country": "India"
  },
  "110100": {
    "place": "Foreign Post Delhi IBC",
    "state": "Delhi",
    "province": "Central Delhi",
    "community": "Delhi",
    "latitude": "28.6431",
    "longitude": "77.2197",
    "country": "India"
  },
  "121001": {
    "place": "Feroz Gandhi Nagar Faridabad",
    "state": "Haryana",
    "province": "Faridabad",
    "community": "Faridabad",
    "latitude": "28.3327",
    "longitude": "77.3548",
    "country": "India"
  },
  "121002": {
    "place": "Bhaskola",
    "state": "Haryana",
    "province": "Faridabad",
    "community": "Faridabad",
    "latitude": "28.4326",
    "longitude": "77.4094",
    "country": "India"
  },
  "121003": {
    "place": "Gurukul Indraprashtha",
    "state": "Haryana",
    "province": "Faridabad",
    "community": "Faridabad",
    "latitude": "28.4651",
    "longitude": "77.3329",
    "country": "India"
  },
  "121004": {
    "place": "Fatehpur Billoch",
    "state": "Haryana",
    "province": "Faridabad",
    "community": "Ballabgarh",
    "latitude": "28.3327",
    "longitude": "77.3548",
    "country": "India"
  },
  "121005": {
    "place": "Jawahar Colony Faridabad",
    "state": "Haryana",
    "province": "Faridabad",
    "community": "Faridabad",
    "latitude": "28.3327",
    "longitude": "77.3548",
    "country": "India"
  },
  "121006": {
    "place": "Faridabad Sector 7",
    "state": "Haryana",
    "province": "Faridabad",
    "community": "Ballabgarh",
    "latitude": "28.3327",
    "longitude": "77.3548",
    "country": "India"
  },
  "121007": {
    "place": "Faridabad Sector 12",
    "state": "Haryana",
    "province": "Faridabad",
    "community": "Faridabad",
    "latitude": "28.3327",
    "longitude": "77.3548",
    "country": "India"
  },
  "121008": {
    "place": "Faridabad Sector 29",
    "state": "Haryana",
    "province": "Faridabad",
    "community": "Faridabad",
    "latitude": "28.3327",
    "longitude": "77.3548",
    "country": "India"
  },
  "121009": {
    "place": "Surajkund Faridabad",
    "state": "Haryana",
    "province": "Faridabad",
    "community": "Faridabad",
    "latitude": "28.3327",
    "longitude": "77.3548",
    "country": "India"
  },
  "121010": {
    "place": "Nhpc Colony Faridabad",
    "state": "Haryana",
    "province": "Faridabad",
    "community": "Faridabad",
    "latitude": "28.3327",
    "longitude": "77.3548",
    "country": "India"
  },
  "121012": {
    "place": "Sector-21D",
    "state": "Haryana",
    "province": "Faridabad",
    "community": "Faridabad",
    "latitude": "28.3327",
    "longitude": "77.3548",
    "country": "India"
  },
  "121013": {
    "place": "Sec-91",
    "state": "Haryana",
    "province": "Faridabad",
    "community": "Faridabad",
    "latitude": "28.3327",
    "longitude": "77.3548",
    "country": "India"
  },
  "121014": {
    "place": "Greater Faridabad",
    "state": "Haryana",
    "province": "Faridabad",
    "community": "Faridabad",
    "latitude": "28.3327",
    "longitude": "77.3548",
    "country": "India"
  },
  "121015": {
    "place": "Sector 55",
    "state": "Haryana",
    "province": "Faridabad",
    "community": "Faridabad",
    "latitude": "28.3327",
    "longitude": "77.3548",
    "country": "India"
  },
  "121101": {
    "place": "Chandpur",
    "state": "Haryana",
    "province": "Faridabad",
    "community": "Ballabgarh",
    "latitude": "28.3257",
    "longitude": "77.4665",
    "country": "India"
  },
  "121102": {
    "place": "Baghola",
    "state": "Haryana",
    "province": "Faridabad",
    "community": "Palwal",
    "latitude": "28.1642",
    "longitude": "77.4108",
    "country": "India"
  },
  "121103": {
    "place": "Rupraka",
    "state": "Haryana",
    "province": "Faridabad",
    "community": "Hathin",
    "latitude": "28.3327",
    "longitude": "77.3548",
    "country": "India"
  },
  "121105": {
    "place": "Manpur",
    "state": "Haryana",
    "province": "Faridabad",
    "community": "Hodal",
    "latitude": "28.3327",
    "longitude": "77.3548",
    "country": "India"
  },
  "121106": {
    "place": "Sondh",
    "state": "Haryana",
    "province": "Faridabad",
    "community": "Hodal",
    "latitude": "28.3327",
    "longitude": "77.3548",
    "country": "India"
  },
  "121107": {
    "place": "Likhi",
    "state": "Haryana",
    "province": "Faridabad",
    "community": "Hodal",
    "latitude": "28.3327",
    "longitude": "77.3548",
    "country": "India"
  },
  "122001": {
    "place": "Gurgaon South City I",
    "state": "Haryana",
    "province": "Gurgaon",
    "community": "NA",
    "latitude": "28.418",
    "longitude": "76.9839",
    "country": "India"
  },
  "122002": {
    "place": "DLF QE",
    "state": "Haryana",
    "province": "Gurgaon",
    "community": "Dlf Qe",
    "latitude": "28.418",
    "longitude": "76.9839",
    "country": "India"
  },
  "122003": {
    "place": "Gwal Pahari",
    "state": "Haryana",
    "province": "Gurgaon",
    "community": "NA",
    "latitude": "28.418",
    "longitude": "76.9839",
    "country": "India"
  },
  "122004": {
    "place": "Sikohpur",
    "state": "Haryana",
    "province": "Gurgaon",
    "community": "NA",
    "latitude": "28.4077",
    "longitude": "76.9836",
    "country": "India"
  },
  "122005": {
    "place": "Air Force",
    "state": "Haryana",
    "province": "Gurgaon",
    "community": "Air Force",
    "latitude": "28.418",
    "longitude": "76.9839",
    "country": "India"
  },
  "122006": {
    "place": "Basai",
    "state": "Haryana",
    "province": "Gurgaon",
    "community": "NA",
    "latitude": "28.4592",
    "longitude": "76.985",
    "country": "India"
  },
  "122007": {
    "place": "Industrial Estate",
    "state": "Haryana",
    "province": "Gurgaon",
    "community": "Industrial Estate",
    "latitude": "28.418",
    "longitude": "76.9839",
    "country": "India"
  },
  "122008": {
    "place": "DLF Ph-II",
    "state": "Haryana",
    "province": "Gurgaon",
    "community": "Dlf Ph-ii",
    "latitude": "28.418",
    "longitude": "76.9839",
    "country": "India"
  },
  "122009": {
    "place": "Galleria DLF-IV",
    "state": "Haryana",
    "province": "Gurgaon",
    "community": "Galleria Dlf-iv",
    "latitude": "28.418",
    "longitude": "76.9839",
    "country": "India"
  },
  "122010": {
    "place": "DLF Ph-III",
    "state": "Haryana",
    "province": "Gurgaon",
    "community": "Dlf Ph-iii",
    "latitude": "28.4001",
    "longitude": "76.9661",
    "country": "India"
  },
  "122011": {
    "place": "Gurgaon Sector 56",
    "state": "Haryana",
    "province": "Gurgaon",
    "community": "NA",
    "latitude": "28.4001",
    "longitude": "76.9661",
    "country": "India"
  },
  "122012": {
    "place": "Vatika India Sector 82 Gurgaon",
    "state": "Haryana",
    "province": "Gurgaon",
    "community": "GURGAON",
    "latitude": "28.4001",
    "longitude": "76.9661",
    "country": "India"
  },
  "122015": {
    "place": "Palam Road",
    "state": "Haryana",
    "province": "Gurgaon",
    "community": "Palam Road",
    "latitude": "28.4001",
    "longitude": "76.9661",
    "country": "India"
  },
  "122016": {
    "place": "Industrial Complex Dundahera",
    "state": "Haryana",
    "province": "Gurgaon",
    "community": "Industrial Complex Dundahera",
    "latitude": "28.4001",
    "longitude": "76.9661",
    "country": "India"
  },
  "122017": {
    "place": "Palam Vihar",
    "state": "Haryana",
    "province": "Gurgaon",
    "community": "Palam Vihar",
    "latitude": "28.4001",
    "longitude": "76.9661",
    "country": "India"
  },
  "122018": {
    "place": "Gurgaon South City II",
    "state": "Haryana",
    "province": "Gurgaon",
    "community": "NA",
    "latitude": "28.4001",
    "longitude": "76.9661",
    "country": "India"
  },
  "122051": {
    "place": "Manesar",
    "state": "Haryana",
    "province": "Gurgaon",
    "community": "NA",
    "latitude": "28.3531",
    "longitude": "76.9404",
    "country": "India"
  },
  "122052": {
    "place": "IMT Manesar",
    "state": "Haryana",
    "province": "Gurgaon",
    "community": "Manesar",
    "latitude": "28.3553",
    "longitude": "76.9215",
    "country": "India"
  },
  "122098": {
    "place": "CRPF Kadarpur",
    "state": "Haryana",
    "province": "Gurgaon",
    "community": "GURGAON",
    "latitude": "28.4001",
    "longitude": "76.9661",
    "country": "India"
  },
  "122101": {
    "place": "Badshahpur",
    "state": "Haryana",
    "province": "Gurgaon",
    "community": "Badshahpur",
    "latitude": "28.3932",
    "longitude": "77.0492",
    "country": "India"
  },
  "122102": {
    "place": "Damdama",
    "state": "Haryana",
    "province": "Gurgaon",
    "community": "NA",
    "latitude": "28.3681",
    "longitude": "76.9408",
    "country": "India"
  },
  "122103": {
    "place": "Chapera",
    "state": "Haryana",
    "province": "Gurgaon",
    "community": "NA",
    "latitude": "28.3681",
    "longitude": "76.9408",
    "country": "India"
  },
  "122104": {
    "place": "Agon",
    "state": "Haryana",
    "province": "Gurgaon",
    "community": "NA",
    "latitude": "28.3681",
    "longitude": "76.9408",
    "country": "India"
  },
  "122105": {
    "place": "Rathiwas",
    "state": "Haryana",
    "province": "Gurgaon",
    "community": "NA",
    "latitude": "28.262",
    "longitude": "76.8518",
    "country": "India"
  },
  "122107": {
    "place": "Ujina",
    "state": "Haryana",
    "province": "Gurgaon",
    "community": "NA",
    "latitude": "28.3681",
    "longitude": "76.9408",
    "country": "India"
  },
  "122108": {
    "place": "Nagina",
    "state": "Haryana",
    "province": "Gurgaon",
    "community": "Nagina",
    "latitude": "28.3681",
    "longitude": "76.9408",
    "country": "India"
  },
  "122413": {
    "place": "Bilaspur Khurd",
    "state": "Haryana",
    "province": "Gurgaon",
    "community": "NA",
    "latitude": "28.2885",
    "longitude": "76.8717",
    "country": "India"
  },
  "122414": {
    "place": "Inchhapuri",
    "state": "Haryana",
    "province": "Gurgaon",
    "community": "NA",
    "latitude": "28.3116",
    "longitude": "76.7202",
    "country": "India"
  },
  "122502": {
    "place": "Sherpur",
    "state": "Haryana",
    "province": "Gurgaon",
    "community": "NA",
    "latitude": "28.3255",
    "longitude": "76.6958",
    "country": "India"
  },
  "122503": {
    "place": "Baspadamka",
    "state": "Haryana",
    "province": "Gurgaon",
    "community": "NA",
    "latitude": "28.3413",
    "longitude": "76.8058",
    "country": "India"
  },
  "122504": {
    "place": "Khandewia",
    "state": "Haryana",
    "province": "Gurgaon",
    "community": "NA",
    "latitude": "28.3598",
    "longitude": "76.7487",
    "country": "India"
  },
  "122505": {
    "place": "Budhera",
    "state": "Haryana",
    "province": "Gurgaon",
    "community": "NA",
    "latitude": "28.4773",
    "longitude": "76.9127",
    "country": "India"
  },
  "122506": {
    "place": "Sultanpur",
    "state": "Haryana",
    "province": "Gurgaon",
    "community": "NA",
    "latitude": "28.4616",
    "longitude": "76.8708",
    "country": "India"
  },
  "122508": {
    "place": "Khanpur Ghati BO",
    "state": "Haryana",
    "province": "Gurgaon",
    "community": "Punhana",
    "latitude": "28.3681",
    "longitude": "76.9408",
    "country": "India"
  },
  "123001": {
    "place": "Dochana",
    "state": "Haryana",
    "province": "Mahendragarh",
    "community": "Dochana",
    "latitude": "28.0733",
    "longitude": "75.9979",
    "country": "India"
  },
  "123021": {
    "place": "Mandi Ateli",
    "state": "Haryana",
    "province": "Rewari",
    "community": "Mandi Ateli",
    "latitude": "28.2358",
    "longitude": "76.5433",
    "country": "India"
  },
  "123023": {
    "place": "Niamatpur",
    "state": "Haryana",
    "province": "Mahendragarh",
    "community": "Niamatpur",
    "latitude": "28.1729",
    "longitude": "76.1432",
    "country": "India"
  },
  "123024": {
    "place": "Jarwa",
    "state": "Haryana",
    "province": "Mahendragarh",
    "community": "Jarwa",
    "latitude": "28.4019",
    "longitude": "75.9576",
    "country": "India"
  },
  "123027": {
    "place": "Rambas",
    "state": "Haryana",
    "province": "Mahendragarh",
    "community": "Rambas",
    "latitude": "28.2709",
    "longitude": "76.317",
    "country": "India"
  },
  "123028": {
    "place": "Nangal Sirohi",
    "state": "Haryana",
    "province": "Mahendragarh",
    "community": "Nangal Sirohi",
    "latitude": "28.1904",
    "longitude": "76.1312",
    "country": "India"
  },
  "123029": {
    "place": "Dulana",
    "state": "Haryana",
    "province": "Mahendragarh",
    "community": "Dulana",
    "latitude": "28.1729",
    "longitude": "76.1432",
    "country": "India"
  },
  "123031": {
    "place": "CUH M.Garh",
    "state": "Haryana",
    "province": "Mahendragarh",
    "community": "Mahendragarh",
    "latitude": "28.1729",
    "longitude": "76.1432",
    "country": "India"
  },
  "123034": {
    "place": "Bhojawas",
    "state": "Haryana",
    "province": "Rewari",
    "community": "Bhojawas",
    "latitude": "28.2358",
    "longitude": "76.5433",
    "country": "India"
  },
  "123035": {
    "place": "Kannaura",
    "state": "Haryana",
    "province": "Rewari",
    "community": "Kannaura",
    "latitude": "28.359",
    "longitude": "76.6377",
    "country": "India"
  },
  "123101": {
    "place": "Pithrawas",
    "state": "Haryana",
    "province": "Rewari",
    "community": "Rewari",
    "latitude": "28.1814",
    "longitude": "76.518",
    "country": "India"
  },
  "123102": {
    "place": "Ahrod",
    "state": "Haryana",
    "province": "Rewari",
    "community": "Ahrod",
    "latitude": "28.1872",
    "longitude": "76.3809",
    "country": "India"
  },
  "123103": {
    "place": "Khaleta",
    "state": "Haryana",
    "province": "Rewari",
    "community": "Khaleta",
    "latitude": "28.2301",
    "longitude": "76.4189",
    "country": "India"
  },
  "123106": {
    "place": "Dungerwas",
    "state": "Haryana",
    "province": "Gurgaon",
    "community": "NA",
    "latitude": "28.3681",
    "longitude": "76.9408",
    "country": "India"
  },
  "123110": {
    "place": "Industrial Area Dharuhera",
    "state": "Haryana",
    "province": "Rewari",
    "community": "Dharuhera",
    "latitude": "28.1937",
    "longitude": "76.5265",
    "country": "India"
  },
  "123301": {
    "place": "Jakhala",
    "state": "Haryana",
    "province": "Rewari",
    "community": "Jakhala",
    "latitude": "28.3848",
    "longitude": "76.5351",
    "country": "India"
  },
  "123302": {
    "place": "Shyam Nagar",
    "state": "Haryana",
    "province": "Rewari",
    "community": "Shayam Nagar",
    "latitude": "28.3498",
    "longitude": "76.5026",
    "country": "India"
  },
  "123303": {
    "place": "Nahar",
    "state": "Haryana",
    "province": "Rewari",
    "community": "Nahar",
    "latitude": "28.4102",
    "longitude": "76.3981",
    "country": "India"
  },
  "123401": {
    "place": "Kankarwali Rewari",
    "state": "Haryana",
    "province": "Gurgaon",
    "community": "Gurgaon",
    "latitude": "28.3681",
    "longitude": "76.9408",
    "country": "India"
  },
  "123411": {
    "place": "Mundi",
    "state": "Haryana",
    "province": "Rewari",
    "community": "Mundi",
    "latitude": "28.2456",
    "longitude": "76.4869",
    "country": "India"
  },
  "123412": {
    "place": "Badhrana",
    "state": "Haryana",
    "province": "Rewari",
    "community": "Rewari",
    "latitude": "28.091",
    "longitude": "76.4914",
    "country": "India"
  },
  "123501": {
    "place": "Nangal Teju",
    "state": "Haryana",
    "province": "Rewari",
    "community": "Nangal Teju",
    "latitude": "28.0182",
    "longitude": "76.5628",
    "country": "India"
  },
  "124001": {
    "place": "Hissar Road Rohtak",
    "state": "Haryana",
    "province": "Rohtak",
    "community": "Rohtak",
    "latitude": "28.8917",
    "longitude": "76.6118",
    "country": "India"
  },
  "124010": {
    "place": "Dobh",
    "state": "Haryana",
    "province": "Rohtak",
    "community": "Rohtak",
    "latitude": "28.8748",
    "longitude": "76.5296",
    "country": "India"
  },
  "124021": {
    "place": "Maina",
    "state": "Haryana",
    "province": "Rohtak",
    "community": "Rohtak",
    "latitude": "28.8475",
    "longitude": "76.6048",
    "country": "India"
  },
  "124022": {
    "place": "Basana",
    "state": "Haryana",
    "province": "Rohtak",
    "community": "Mehem",
    "latitude": "28.8939",
    "longitude": "76.3718",
    "country": "India"
  },
  "124102": {
    "place": "Seria",
    "state": "Haryana",
    "province": "Jhajjar",
    "community": "Jhajjar",
    "latitude": "28.7174",
    "longitude": "76.6099",
    "country": "India"
  },
  "124103": {
    "place": "Palra",
    "state": "Haryana",
    "province": "Jhajjar",
    "community": "Jhajjar",
    "latitude": "28.6048",
    "longitude": "76.6494",
    "country": "India"
  },
  "124104": {
    "place": "Kheri Asra",
    "state": "Haryana",
    "province": "Jhajjar",
    "community": "Jhajjar",
    "latitude": "28.6594",
    "longitude": "76.7247",
    "country": "India"
  },
  "124105": {
    "place": "Pelpa",
    "state": "Haryana",
    "province": "Jhajjar",
    "community": "Jhajjar",
    "latitude": "28.5352",
    "longitude": "76.7997",
    "country": "India"
  },
  "124106": {
    "place": "Marot",
    "state": "Haryana",
    "province": "Jhajjar",
    "community": "Jhajjar",
    "latitude": "28.5913",
    "longitude": "76.5431",
    "country": "India"
  },
  "124107": {
    "place": "Barhana",
    "state": "Haryana",
    "province": "Jhajjar",
    "community": "Jhajjar",
    "latitude": "28.7572",
    "longitude": "76.6738",
    "country": "India"
  },
  "124108": {
    "place": "Ahri",
    "state": "Haryana",
    "province": "Jhajjar",
    "community": "Jhajjar",
    "latitude": "28.4459",
    "longitude": "76.6307",
    "country": "India"
  },
  "124109": {
    "place": "Surheti",
    "state": "Haryana",
    "province": "Jhajjar",
    "community": "Jhajjar",
    "latitude": "28.6311",
    "longitude": "76.5723",
    "country": "India"
  },
  "124111": {
    "place": "Ajaib",
    "state": "Haryana",
    "province": "Rohtak",
    "community": "Rohtak",
    "latitude": "28.9828",
    "longitude": "76.4177",
    "country": "India"
  },
  "124112": {
    "place": "Behlba",
    "state": "Haryana",
    "province": "Rohtak",
    "community": "Mehem",
    "latitude": "28.9145",
    "longitude": "76.5292",
    "country": "India"
  },
  "124113": {
    "place": "Khairari",
    "state": "Haryana",
    "province": "Rohtak",
    "community": "Rohtak",
    "latitude": "28.9145",
    "longitude": "76.5292",
    "country": "India"
  },
  "124141": {
    "place": "Power Plant Jharli",
    "state": "Haryana",
    "province": "Rohtak",
    "community": "Rohtak",
    "latitude": "28.9145",
    "longitude": "76.5292",
    "country": "India"
  },
  "124142": {
    "place": "Khanpur Khurd",
    "state": "Haryana",
    "province": "Jhajjar",
    "community": "Jhajjar",
    "latitude": "28.4703",
    "longitude": "76.3532",
    "country": "India"
  },
  "124146": {
    "place": "Nilaheri",
    "state": "Haryana",
    "province": "Jhajjar",
    "community": "Jhajjar",
    "latitude": "28.4898",
    "longitude": "76.5159",
    "country": "India"
  },
  "124201": {
    "place": "Dhaur",
    "state": "Haryana",
    "province": "Jhajjar",
    "community": "Jhajjar",
    "latitude": "28.6555",
    "longitude": "76.6092",
    "country": "India"
  },
  "124202": {
    "place": "Pilana",
    "state": "Haryana",
    "province": "Jhajjar",
    "community": "Jhajjar",
    "latitude": "28.6853",
    "longitude": "76.4613",
    "country": "India"
  },
  "124303": {
    "place": "Sanghi",
    "state": "Haryana",
    "province": "Rohtak",
    "community": "Rohtak",
    "latitude": "29.0286",
    "longitude": "76.6155",
    "country": "India"
  },
  "124401": {
    "place": "Paksma",
    "state": "Haryana",
    "province": "Rohtak",
    "community": "Rohtak",
    "latitude": "28.9324",
    "longitude": "76.6991",
    "country": "India"
  },
  "124404": {
    "place": "Hassangarh",
    "state": "Haryana",
    "province": "Jhajjar",
    "community": "Bahadurgarh",
    "latitude": "28.6048",
    "longitude": "76.6494",
    "country": "India"
  },
  "124406": {
    "place": "Kansala",
    "state": "Haryana",
    "province": "Rohtak",
    "community": "Rohtak",
    "latitude": "28.8934",
    "longitude": "76.7823",
    "country": "India"
  },
  "124411": {
    "place": "Garhi Ballab",
    "state": "Haryana",
    "province": "Rohtak",
    "community": "Rohtak",
    "latitude": "28.8308",
    "longitude": "76.4667",
    "country": "India"
  },
  "124412": {
    "place": "Chimni",
    "state": "Haryana",
    "province": "Rohtak",
    "community": "Rohtak",
    "latitude": "28.9145",
    "longitude": "76.5292",
    "country": "India"
  },
  "124501": {
    "place": "Sampla",
    "state": "Haryana",
    "province": "Jhajjar",
    "community": "Bahadurgarh",
    "latitude": "28.6048",
    "longitude": "76.6494",
    "country": "India"
  },
  "124504": {
    "place": "Charra",
    "state": "Haryana",
    "province": "Jhajjar",
    "community": "Bahadurgarh",
    "latitude": "28.7918",
    "longitude": "76.8258",
    "country": "India"
  },
  "124505": {
    "place": "Assaudha",
    "state": "Haryana",
    "province": "Jhajjar",
    "community": "Bahadurgarh",
    "latitude": "28.7554",
    "longitude": "76.904",
    "country": "India"
  },
  "124506": {
    "place": "Tandaheri",
    "state": "Haryana",
    "province": "Jhajjar",
    "community": "Jhajjar",
    "latitude": "28.691",
    "longitude": "76.8561",
    "country": "India"
  },
  "124507": {
    "place": "Main Bazar,Bahadurgarh",
    "state": "Haryana",
    "province": "Jhajjar",
    "community": "Bahadurgarh",
    "latitude": "28.7918",
    "longitude": "76.8258",
    "country": "India"
  },
  "124508": {
    "place": "Daboda Kalan",
    "state": "Haryana",
    "province": "Jhajjar",
    "community": "Bahadurgarh",
    "latitude": "28.6328",
    "longitude": "76.7875",
    "country": "India"
  },
  "124513": {
    "place": "Nindana",
    "state": "Haryana",
    "province": "Rohtak",
    "community": "Mehem",
    "latitude": "28.9642",
    "longitude": "76.4989",
    "country": "India"
  },
  "124514": {
    "place": "Chiri",
    "state": "Haryana",
    "province": "Rohtak",
    "community": "Rohtak",
    "latitude": "29.0602",
    "longitude": "76.535",
    "country": "India"
  },
  "125001": {
    "place": "Hisar City",
    "state": "Haryana",
    "province": "Hisar",
    "community": "Hisar",
    "latitude": "29.0755",
    "longitude": "75.7562",
    "country": "India"
  },
  "125004": {
    "place": "Bandaheri",
    "state": "Haryana",
    "province": "Hisar",
    "community": "Hisar",
    "latitude": "29.2151",
    "longitude": "75.8156",
    "country": "India"
  },
  "125005": {
    "place": "Shaharwa",
    "state": "Haryana",
    "province": "Hisar",
    "community": "Hisar",
    "latitude": "28.9221",
    "longitude": "75.7419",
    "country": "India"
  },
  "125006": {
    "place": "Satroad Kalan",
    "state": "Haryana",
    "province": "Hisar",
    "community": "Hisar",
    "latitude": "29.0543",
    "longitude": "75.7998",
    "country": "India"
  },
  "125007": {
    "place": "Muklan",
    "state": "Haryana",
    "province": "Hisar",
    "community": "Hisar",
    "latitude": "29.0684",
    "longitude": "75.6615",
    "country": "India"
  },
  "125011": {
    "place": "B.S.F Hisar",
    "state": "Haryana",
    "province": "Hisar",
    "community": "Hisar",
    "latitude": "29.3034",
    "longitude": "75.7113",
    "country": "India"
  },
  "125033": {
    "place": "Sultanpur",
    "state": "Haryana",
    "province": "Hisar",
    "community": "Hansi",
    "latitude": "29.0347",
    "longitude": "75.8692",
    "country": "India"
  },
  "125037": {
    "place": "Kanwari",
    "state": "Haryana",
    "province": "Hisar",
    "community": "Hisar",
    "latitude": "28.9775",
    "longitude": "75.8718",
    "country": "India"
  },
  "125038": {
    "place": "Dharam Kheri",
    "state": "Haryana",
    "province": "Hisar",
    "community": "Hansi",
    "latitude": "29.2151",
    "longitude": "75.8156",
    "country": "India"
  },
  "125039": {
    "place": "Nara",
    "state": "Haryana",
    "province": "Hisar",
    "community": "Hansi",
    "latitude": "29.3407",
    "longitude": "76.1546",
    "country": "India"
  },
  "125042": {
    "place": "Kharbala",
    "state": "Haryana",
    "province": "Hisar",
    "community": "Hansi",
    "latitude": "29.0692",
    "longitude": "76.159",
    "country": "India"
  },
  "125044": {
    "place": "Kharar Alipur",
    "state": "Haryana",
    "province": "Hisar",
    "community": "Hisar",
    "latitude": "29.3257",
    "longitude": "75.7768",
    "country": "India"
  },
  "125047": {
    "place": "Agroha",
    "state": "Haryana",
    "province": "Hisar",
    "community": "Hisar",
    "latitude": "29.3305",
    "longitude": "75.6338",
    "country": "India"
  },
  "125048": {
    "place": "Badopal",
    "state": "Haryana",
    "province": "Fatehabad",
    "community": "Fatehabad",
    "latitude": "29.4155",
    "longitude": "75.5503",
    "country": "India"
  },
  "125049": {
    "place": "Data",
    "state": "Haryana",
    "province": "Hisar",
    "community": "Hansi",
    "latitude": "29.2671",
    "longitude": "75.9963",
    "country": "India"
  },
  "125050": {
    "place": "Nakhatia",
    "state": "Haryana",
    "province": "Fatehabad",
    "community": "Fatehabad",
    "latitude": "29.4899",
    "longitude": "75.448",
    "country": "India"
  },
  "125051": {
    "place": "Marh",
    "state": "Haryana",
    "province": "Hisar",
    "community": "Rattia",
    "latitude": "29.2151",
    "longitude": "75.8156",
    "country": "India"
  },
  "125052": {
    "place": "Kohli",
    "state": "Haryana",
    "province": "Hisar",
    "community": "Hisar",
    "latitude": "29.2805",
    "longitude": "75.5216",
    "country": "India"
  },
  "125053": {
    "place": "Dhingsara",
    "state": "Haryana",
    "province": "Fatehabad",
    "community": "Fatehabad",
    "latitude": "29.4426",
    "longitude": "75.3674",
    "country": "India"
  },
  "125054": {
    "place": "Bahaudin",
    "state": "Haryana",
    "province": "Sirsa",
    "community": "Sirsa",
    "latitude": "29.5202",
    "longitude": "75.28",
    "country": "India"
  },
  "125055": {
    "place": "Bhratwala",
    "state": "Haryana",
    "province": "Sirsa",
    "community": "Sirsa",
    "latitude": "29.6148",
    "longitude": "74.9015",
    "country": "India"
  },
  "125056": {
    "place": "JCD Vidyapeeth Sirsa",
    "state": "Haryana",
    "province": "Sirsa",
    "community": "Sirsa",
    "latitude": "29.6148",
    "longitude": "74.9015",
    "country": "India"
  },
  "125058": {
    "place": "Mochiwali",
    "state": "Haryana",
    "province": "Sirsa",
    "community": "Sirsa",
    "latitude": "29.4765",
    "longitude": "75.2551",
    "country": "India"
  },
  "125060": {
    "place": "Darbi",
    "state": "Haryana",
    "province": "Sirsa",
    "community": "Sirsa",
    "latitude": "29.5782",
    "longitude": "75.1524",
    "country": "India"
  },
  "125075": {
    "place": "Bahya",
    "state": "Haryana",
    "province": "Sirsa",
    "community": "Sirsa",
    "latitude": "29.595",
    "longitude": "74.6799",
    "country": "India"
  },
  "125076": {
    "place": "Rania",
    "state": "Haryana",
    "province": "Sirsa",
    "community": "Sirsa",
    "latitude": "29.5245",
    "longitude": "74.8369",
    "country": "India"
  },
  "125077": {
    "place": "Buraj Bhangu",
    "state": "Haryana",
    "province": "Sirsa",
    "community": "Odhan",
    "latitude": "29.7831",
    "longitude": "74.8784",
    "country": "India"
  },
  "125078": {
    "place": "Bhiwan",
    "state": "Haryana",
    "province": "Sirsa",
    "community": "Baragudha",
    "latitude": "29.6148",
    "longitude": "74.9015",
    "country": "India"
  },
  "125101": {
    "place": "Asa Khera",
    "state": "Haryana",
    "province": "Sirsa",
    "community": "NA",
    "latitude": "29.8056",
    "longitude": "74.5834",
    "country": "India"
  },
  "125102": {
    "place": "Talwara Khurd",
    "state": "Haryana",
    "province": "Sirsa",
    "community": "Sirsa",
    "latitude": "29.4972",
    "longitude": "74.6349",
    "country": "India"
  },
  "125103": {
    "place": "Ganga",
    "state": "Haryana",
    "province": "Sirsa",
    "community": "Sirsa",
    "latitude": "29.7854",
    "longitude": "74.673",
    "country": "India"
  },
  "125104": {
    "place": "Mandi Dabwali",
    "state": "Haryana",
    "province": "Sirsa",
    "community": "M.dabwali",
    "latitude": "29.9663",
    "longitude": "74.7003",
    "country": "India"
  },
  "125106": {
    "place": "Degoh",
    "state": "Haryana",
    "province": "Fatehabad",
    "community": "Tohana",
    "latitude": "29.6785",
    "longitude": "75.6916",
    "country": "India"
  },
  "125110": {
    "place": "Chopta Nathu Sari",
    "state": "Haryana",
    "province": "Sirsa",
    "community": "Sirsa",
    "latitude": "29.3608",
    "longitude": "75.1205",
    "country": "India"
  },
  "125111": {
    "place": "Sanchla",
    "state": "Haryana",
    "province": "Fatehabad",
    "community": "Fatehabad",
    "latitude": "29.5566",
    "longitude": "75.7761",
    "country": "India"
  },
  "125112": {
    "place": "Balak",
    "state": "Haryana",
    "province": "Hisar",
    "community": "Hisar",
    "latitude": "29.3662",
    "longitude": "75.7942",
    "country": "India"
  },
  "125113": {
    "place": "Hassangarh",
    "state": "Haryana",
    "province": "Hisar",
    "community": "Hisar",
    "latitude": "29.509",
    "longitude": "75.8891",
    "country": "India"
  },
  "125120": {
    "place": "Gajuwala",
    "state": "Haryana",
    "province": "Hisar",
    "community": "Tohana",
    "latitude": "29.2151",
    "longitude": "75.8156",
    "country": "India"
  },
  "125121": {
    "place": "Faridpur",
    "state": "Haryana",
    "province": "Hisar",
    "community": "Hisar",
    "latitude": "29.4307",
    "longitude": "75.8369",
    "country": "India"
  },
  "125133": {
    "place": "Meond Kalan",
    "state": "Haryana",
    "province": "Fatehabad",
    "community": "Tohana",
    "latitude": "29.6789",
    "longitude": "75.4207",
    "country": "India"
  },
  "125201": {
    "place": "Lakarwali",
    "state": "Haryana",
    "province": "Sirsa",
    "community": "Kalanwali",
    "latitude": "29.7687",
    "longitude": "74.9899",
    "country": "India"
  },
  "126101": {
    "place": "Malwi",
    "state": "Haryana",
    "province": "Jind",
    "community": "Jind  jind",
    "latitude": "29.0992",
    "longitude": "76.3393",
    "country": "India"
  },
  "126102": {
    "place": "Jind H.O",
    "state": "Haryana",
    "province": "Jind",
    "community": "Jind",
    "latitude": "29.3166",
    "longitude": "76.293",
    "country": "India"
  },
  "126110": {
    "place": "Dalamwala",
    "state": "Haryana",
    "province": "Jind",
    "community": "Jind",
    "latitude": "29.3868",
    "longitude": "76.3833",
    "country": "India"
  },
  "126111": {
    "place": "Khanda",
    "state": "Haryana",
    "province": "Jind",
    "community": "Jind",
    "latitude": "29.4528",
    "longitude": "76.4603",
    "country": "India"
  },
  "126112": {
    "place": "Malar",
    "state": "Haryana",
    "province": "Jind",
    "community": "Safidon",
    "latitude": "29.3695",
    "longitude": "76.5789",
    "country": "India"
  },
  "126113": {
    "place": "Assan",
    "state": "Haryana",
    "province": "Jind",
    "community": "Safidon",
    "latitude": "29.2537",
    "longitude": "76.4508",
    "country": "India"
  },
  "126114": {
    "place": "Shamlo Kalan",
    "state": "Haryana",
    "province": "Jind",
    "community": "Safidon",
    "latitude": "29.2022",
    "longitude": "76.3689",
    "country": "India"
  },
  "126115": {
    "place": "Kakrod",
    "state": "Haryana",
    "province": "Jind",
    "community": "Narwana",
    "latitude": "29.4551",
    "longitude": "76.0877",
    "country": "India"
  },
  "126116": {
    "place": "Pharain Kalan",
    "state": "Haryana",
    "province": "Jind",
    "community": "Narwana",
    "latitude": "29.5968",
    "longitude": "76.0326",
    "country": "India"
  },
  "126125": {
    "place": "Chuharpur",
    "state": "Haryana",
    "province": "Jind",
    "community": "Jind",
    "latitude": "29.4742",
    "longitude": "76.3923",
    "country": "India"
  },
  "126152": {
    "place": "Sachha Khera",
    "state": "Haryana",
    "province": "Jind",
    "community": "Jind",
    "latitude": "29.5026",
    "longitude": "76.0363",
    "country": "India"
  },
  "127021": {
    "place": "Bseh Bhiwani",
    "state": "Haryana",
    "province": "Bhiwani",
    "community": "Bhiwani",
    "latitude": "28.6418",
    "longitude": "75.9763",
    "country": "India"
  },
  "127022": {
    "place": "Makrana",
    "state": "Haryana",
    "province": "Bhiwani",
    "community": "Dadri",
    "latitude": "28.4948",
    "longitude": "76.2706",
    "country": "India"
  },
  "127025": {
    "place": "Malkosh",
    "state": "Haryana",
    "province": "Bhiwani",
    "community": "Dadri",
    "latitude": "28.7792",
    "longitude": "76.3416",
    "country": "India"
  },
  "127026": {
    "place": "Badal",
    "state": "Haryana",
    "province": "Bhiwani",
    "community": "Dadri",
    "latitude": "28.5405",
    "longitude": "76.1304",
    "country": "India"
  },
  "127027": {
    "place": "Chang",
    "state": "Haryana",
    "province": "Bhiwani",
    "community": "Bhiwani",
    "latitude": "28.8839",
    "longitude": "76.2535",
    "country": "India"
  },
  "127028": {
    "place": "Sidhanwa",
    "state": "Haryana",
    "province": "Bhiwani",
    "community": "Siwani",
    "latitude": "28.6816",
    "longitude": "75.6247",
    "country": "India"
  },
  "127029": {
    "place": "Mansarbass",
    "state": "Haryana",
    "province": "Bhiwani",
    "community": "Bhiwani",
    "latitude": "28.6252",
    "longitude": "76.0301",
    "country": "India"
  },
  "127030": {
    "place": "Golagarh",
    "state": "Haryana",
    "province": "Bhiwani",
    "community": "Bhiwani",
    "latitude": "28.6478",
    "longitude": "75.9717",
    "country": "India"
  },
  "127031": {
    "place": "Gujrani",
    "state": "Haryana",
    "province": "Bhiwani",
    "community": "Bhiwani",
    "latitude": "28.8496",
    "longitude": "76.1724",
    "country": "India"
  },
  "127032": {
    "place": "Mandhana",
    "state": "Haryana",
    "province": "Bhiwani",
    "community": "Bawani Khera",
    "latitude": "28.9127",
    "longitude": "76.1138",
    "country": "India"
  },
  "127035": {
    "place": "Rohnat",
    "state": "Haryana",
    "province": "Bhiwani",
    "community": "Bhiwani",
    "latitude": "28.9625",
    "longitude": "75.9572",
    "country": "India"
  },
  "127040": {
    "place": "Tosham",
    "state": "Haryana",
    "province": "Bhiwani",
    "community": "Bhiwani",
    "latitude": "28.8699",
    "longitude": "75.9165",
    "country": "India"
  },
  "127041": {
    "place": "Siwana",
    "state": "Haryana",
    "province": "Bhiwani",
    "community": "Bhiwani",
    "latitude": "29.0058",
    "longitude": "76.0603",
    "country": "India"
  },
  "127042": {
    "place": "Sanwar",
    "state": "Haryana",
    "province": "Bhiwani",
    "community": "Charkhi Dadri",
    "latitude": "28.7104",
    "longitude": "76.2917",
    "country": "India"
  },
  "127043": {
    "place": "Bhushan",
    "state": "Haryana",
    "province": "Bhiwani",
    "community": "Bhiwani",
    "latitude": "28.7363",
    "longitude": "75.755",
    "country": "India"
  },
  "127045": {
    "place": "Barwa",
    "state": "Haryana",
    "province": "Bhiwani",
    "community": "Siwani",
    "latitude": "28.9638",
    "longitude": "75.6054",
    "country": "India"
  },
  "127046": {
    "place": "Jhumpa Kalan",
    "state": "Haryana",
    "province": "Bhiwani",
    "community": "Siwani",
    "latitude": "28.7712",
    "longitude": "75.5312",
    "country": "India"
  },
  "127111": {
    "place": "Biran",
    "state": "Haryana",
    "province": "Bhiwani",
    "community": "Bhiwani",
    "latitude": "28.831",
    "longitude": "76.0085",
    "country": "India"
  },
  "127114": {
    "place": "Kharak Kalan",
    "state": "Haryana",
    "province": "Bhiwani",
    "community": "Bhiwani",
    "latitude": "28.829",
    "longitude": "76.3051",
    "country": "India"
  },
  "127201": {
    "place": "Paju",
    "state": "Haryana",
    "province": "Bhiwani",
    "community": "Loharu",
    "latitude": "28.5676",
    "longitude": "75.6746",
    "country": "India"
  },
  "127306": {
    "place": "Neemli",
    "state": "Haryana",
    "province": "Bhiwani",
    "community": "Charkhi Dadri",
    "latitude": "28.606",
    "longitude": "76.3017",
    "country": "India"
  },
  "127307": {
    "place": "Morwala",
    "state": "Haryana",
    "province": "Bhiwani",
    "community": "Dadri",
    "latitude": "28.6383",
    "longitude": "76.4037",
    "country": "India"
  },
  "127308": {
    "place": "Nandha",
    "state": "Haryana",
    "province": "Bhiwani",
    "community": "Dadri",
    "latitude": "28.7179",
    "longitude": "75.9676",
    "country": "India"
  },
  "127309": {
    "place": "Sanga",
    "state": "Haryana",
    "province": "Bhiwani",
    "community": "Bhiwani",
    "latitude": "28.7769",
    "longitude": "76.2314",
    "country": "India"
  },
  "127310": {
    "place": "Pichopa Kalan",
    "state": "Haryana",
    "province": "Bhiwani",
    "community": "Charkhi Dadri",
    "latitude": "28.5319",
    "longitude": "76.0763",
    "country": "India"
  },
  "127311": {
    "place": "Dhana Ladan Pur",
    "state": "Haryana",
    "province": "Bhiwani",
    "community": "Bhiwani",
    "latitude": "28.702",
    "longitude": "76.122",
    "country": "India"
  },
  "127312": {
    "place": "Chandwas",
    "state": "Haryana",
    "province": "Bhiwani",
    "community": "Bhiwani",
    "latitude": "28.4895",
    "longitude": "75.9772",
    "country": "India"
  },
  "131001": {
    "place": "Shapur Turk",
    "state": "Haryana",
    "province": "Sonipat",
    "community": "NA",
    "latitude": "28.9871",
    "longitude": "76.9937",
    "country": "India"
  },
  "131021": {
    "place": "Baroli",
    "state": "Haryana",
    "province": "Sonipat",
    "community": "NA",
    "latitude": "29.0617",
    "longitude": "76.8795",
    "country": "India"
  },
  "131022": {
    "place": "Salimsar Majra",
    "state": "Haryana",
    "province": "Sonipat",
    "community": "NA",
    "latitude": "28.9972",
    "longitude": "76.9011",
    "country": "India"
  },
  "131023": {
    "place": "Aterna",
    "state": "Haryana",
    "province": "Sonipat",
    "community": "NA",
    "latitude": "28.904",
    "longitude": "77.1571",
    "country": "India"
  },
  "131024": {
    "place": "Bohla",
    "state": "Haryana",
    "province": "Sonipat",
    "community": "NA",
    "latitude": "29.0833",
    "longitude": "76.8791",
    "country": "India"
  },
  "131027": {
    "place": "Murthal",
    "state": "Haryana",
    "province": "Sonipat",
    "community": "NA",
    "latitude": "29.0402",
    "longitude": "77.0927",
    "country": "India"
  },
  "131028": {
    "place": "Janti Kalan",
    "state": "Haryana",
    "province": "Sonipat",
    "community": "NA",
    "latitude": "28.8617",
    "longitude": "77.1647",
    "country": "India"
  },
  "131029": {
    "place": "Pritampura",
    "state": "Haryana",
    "province": "Sonipat",
    "community": "NA",
    "latitude": "29.194",
    "longitude": "76.9148",
    "country": "India"
  },
  "131030": {
    "place": "TDI City Kundli",
    "state": "Haryana",
    "province": "Sonipat",
    "community": "Kundli",
    "latitude": "29.098",
    "longitude": "77.0684",
    "country": "India"
  },
  "131039": {
    "place": "Bhagan",
    "state": "Haryana",
    "province": "Sonipat",
    "community": "NA",
    "latitude": "29.098",
    "longitude": "77.0684",
    "country": "India"
  },
  "131101": {
    "place": "Ahulana",
    "state": "Haryana",
    "province": "Sonipat",
    "community": "NA",
    "latitude": "29.1364",
    "longitude": "77.0297",
    "country": "India"
  },
  "131102": {
    "place": "Purkhas",
    "state": "Haryana",
    "province": "Sonipat",
    "community": "NA",
    "latitude": "29.1578",
    "longitude": "76.8968",
    "country": "India"
  },
  "131103": {
    "place": "Nahra",
    "state": "Haryana",
    "province": "Sonipat",
    "community": "NA",
    "latitude": "28.879",
    "longitude": "77.0144",
    "country": "India"
  },
  "131301": {
    "place": "Lath",
    "state": "Haryana",
    "province": "Sonipat",
    "community": "NA",
    "latitude": "29.0737",
    "longitude": "76.7807",
    "country": "India"
  },
  "131302": {
    "place": "Nizampur",
    "state": "Haryana",
    "province": "Sonipat",
    "community": "NA",
    "latitude": "29.2298",
    "longitude": "76.5063",
    "country": "India"
  },
  "131304": {
    "place": "Baroda",
    "state": "Haryana",
    "province": "Sonipat",
    "community": "Sonipat",
    "latitude": "29.0617",
    "longitude": "76.8795",
    "country": "India"
  },
  "131305": {
    "place": "Khanpur Kalan",
    "state": "Haryana",
    "province": "Sonipat",
    "community": "NA",
    "latitude": "29.161",
    "longitude": "76.7922",
    "country": "India"
  },
  "131306": {
    "place": "Jawahra",
    "state": "Haryana",
    "province": "Sonipat",
    "community": "NA",
    "latitude": "29.2601",
    "longitude": "76.7901",
    "country": "India"
  },
  "131402": {
    "place": "Pipli",
    "state": "Haryana",
    "province": "Sonipat",
    "community": "NA",
    "latitude": "28.8605",
    "longitude": "76.9375",
    "country": "India"
  },
  "131403": {
    "place": "Badhana",
    "state": "Haryana",
    "province": "Sonipat",
    "community": "Sonipat",
    "latitude": "29.0617",
    "longitude": "76.8795",
    "country": "India"
  },
  "131408": {
    "place": "Jasrana",
    "state": "Haryana",
    "province": "Sonipat",
    "community": "NA",
    "latitude": "28.9588",
    "longitude": "76.7761",
    "country": "India"
  },
  "131409": {
    "place": "Giwana",
    "state": "Haryana",
    "province": "Sonipat",
    "community": "NA",
    "latitude": "29.0247",
    "longitude": "76.7686",
    "country": "India"
  },
  "132001": {
    "place": "Canal Colony",
    "state": "Haryana",
    "province": "Karnal",
    "community": "Karnal",
    "latitude": "29.6875",
    "longitude": "76.8847",
    "country": "India"
  },
  "132022": {
    "place": "Nalipar",
    "state": "Haryana",
    "province": "Karnal",
    "community": "Kunjpura",
    "latitude": "29.7169",
    "longitude": "77.0947",
    "country": "India"
  },
  "132023": {
    "place": "Tikri",
    "state": "Haryana",
    "province": "Karnal",
    "community": "Karnal",
    "latitude": "29.7355",
    "longitude": "77.0093",
    "country": "India"
  },
  "132024": {
    "place": "Sirsi",
    "state": "Haryana",
    "province": "Karnal",
    "community": "Karnal",
    "latitude": "29.6825",
    "longitude": "76.8905",
    "country": "India"
  },
  "132036": {
    "place": "Bansa",
    "state": "Haryana",
    "province": "Karnal",
    "community": "Jundla",
    "latitude": "29.603",
    "longitude": "76.835",
    "country": "India"
  },
  "132037": {
    "place": "Madhuban PTC",
    "state": "Haryana",
    "province": "Karnal",
    "community": "Nilokheri",
    "latitude": "29.6247",
    "longitude": "77.0141",
    "country": "India"
  },
  "132039": {
    "place": "Mardanheri",
    "state": "Haryana",
    "province": "Karnal",
    "community": "Assandh",
    "latitude": "29.5283",
    "longitude": "76.5732",
    "country": "India"
  },
  "132040": {
    "place": "Ballah",
    "state": "Haryana",
    "province": "Karnal",
    "community": "Assandh",
    "latitude": "29.5187",
    "longitude": "76.8496",
    "country": "India"
  },
  "132041": {
    "place": "Kheri Man Singh",
    "state": "Haryana",
    "province": "Karnal",
    "community": "Indri",
    "latitude": "29.8231",
    "longitude": "76.9967",
    "country": "India"
  },
  "132046": {
    "place": "A.K.G.V.Mormajra",
    "state": "Haryana",
    "province": "Karnal",
    "community": "Assandh",
    "latitude": "29.5181",
    "longitude": "76.7243",
    "country": "India"
  },
  "132054": {
    "place": "Chogawan",
    "state": "Haryana",
    "province": "Karnal",
    "community": "Indri",
    "latitude": "29.6875",
    "longitude": "76.8847",
    "country": "India"
  },
  "132101": {
    "place": "Chulkana",
    "state": "Haryana",
    "province": "Panipat",
    "community": "Panipat",
    "latitude": "29.2561",
    "longitude": "77.0088",
    "country": "India"
  },
  "132102": {
    "place": "Bhodwal Majri",
    "state": "Haryana",
    "province": "Panipat",
    "community": "Panipat",
    "latitude": "29.1967",
    "longitude": "77.0158",
    "country": "India"
  },
  "132103": {
    "place": "Panipat H.O",
    "state": "Haryana",
    "province": "Panipat",
    "community": "Panipat",
    "latitude": "29.3882",
    "longitude": "76.9586",
    "country": "India"
  },
  "132104": {
    "place": "Panipat Khadi Ashram",
    "state": "Haryana",
    "province": "Panipat",
    "community": "Panipat",
    "latitude": "29.369",
    "longitude": "76.9753",
    "country": "India"
  },
  "132105": {
    "place": "Sutana",
    "state": "Haryana",
    "province": "Panipat",
    "community": "Panipat",
    "latitude": "29.3682",
    "longitude": "76.8808",
    "country": "India"
  },
  "132106": {
    "place": "Bursham",
    "state": "Haryana",
    "province": "Panipat",
    "community": "Panipat",
    "latitude": "29.3326",
    "longitude": "76.9263",
    "country": "India"
  },
  "132107": {
    "place": "Mandi",
    "state": "Haryana",
    "province": "Panipat",
    "community": "Panipat",
    "latitude": "29.2463",
    "longitude": "76.8957",
    "country": "India"
  },
  "132108": {
    "place": "Diwana",
    "state": "Haryana",
    "province": "Panipat",
    "community": "Panipat",
    "latitude": "29.3139",
    "longitude": "76.9717",
    "country": "India"
  },
  "132113": {
    "place": "Ataula",
    "state": "Haryana",
    "province": "Panipat",
    "community": "Panipat",
    "latitude": "29.3326",
    "longitude": "76.9263",
    "country": "India"
  },
  "132114": {
    "place": "Kaimla",
    "state": "Haryana",
    "province": "Karnal",
    "community": "Garunda",
    "latitude": "29.5061",
    "longitude": "76.9992",
    "country": "India"
  },
  "132115": {
    "place": "Raksera",
    "state": "Haryana",
    "province": "Panipat",
    "community": "Panipat",
    "latitude": "29.2269",
    "longitude": "77.1181",
    "country": "India"
  },
  "132116": {
    "place": "Shamgarh",
    "state": "Haryana",
    "province": "Karnal",
    "community": "Nilokheri",
    "latitude": "29.7745",
    "longitude": "76.9566",
    "country": "India"
  },
  "132117": {
    "place": "Bairsal",
    "state": "Haryana",
    "province": "Karnal",
    "community": "Nilokheri",
    "latitude": "29.9041",
    "longitude": "76.9461",
    "country": "India"
  },
  "132122": {
    "place": "Dehra",
    "state": "Haryana",
    "province": "Panipat",
    "community": "Panipat",
    "latitude": "29.2076",
    "longitude": "77.0724",
    "country": "India"
  },
  "132140": {
    "place": "Rair Kalan",
    "state": "Haryana",
    "province": "Panipat",
    "community": "Panipat",
    "latitude": "29.4567",
    "longitude": "76.9347",
    "country": "India"
  },
  "132145": {
    "place": "Didwari",
    "state": "Haryana",
    "province": "Panipat",
    "community": "Panipat",
    "latitude": "29.2884",
    "longitude": "76.9315",
    "country": "India"
  },
  "132157": {
    "place": "Jamba",
    "state": "Haryana",
    "province": "Karnal",
    "community": "Nigdhu",
    "latitude": "29.6875",
    "longitude": "76.8847",
    "country": "India"
  },
  "133001": {
    "place": "Commissioner Court",
    "state": "Haryana",
    "province": "Ambala",
    "community": "Ambala",
    "latitude": "30.2901",
    "longitude": "76.8908",
    "country": "India"
  },
  "133004": {
    "place": "Kuldeep Nagar",
    "state": "Haryana",
    "province": "Ambala",
    "community": "Ambala",
    "latitude": "30.2729",
    "longitude": "76.8706",
    "country": "India"
  },
  "133005": {
    "place": "Boh",
    "state": "Haryana",
    "province": "Ambala",
    "community": "Ambala",
    "latitude": "30.2901",
    "longitude": "76.8908",
    "country": "India"
  },
  "133006": {
    "place": "Ind-estate",
    "state": "Haryana",
    "province": "Ambala",
    "community": "Ambala",
    "latitude": "30.2901",
    "longitude": "76.8908",
    "country": "India"
  },
  "133008": {
    "place": "Majri",
    "state": "Haryana",
    "province": "Ambala",
    "community": "Ambala",
    "latitude": "30.3935",
    "longitude": "77.0121",
    "country": "India"
  },
  "133010": {
    "place": "Defence Colony",
    "state": "Haryana",
    "province": "Ambala",
    "community": "Ambala",
    "latitude": "30.3285",
    "longitude": "76.9422",
    "country": "India"
  },
  "133101": {
    "place": "Keshopur Samalkha",
    "state": "Haryana",
    "province": "Ambala",
    "community": "Barara",
    "latitude": "30.2757",
    "longitude": "76.9551",
    "country": "India"
  },
  "133102": {
    "place": "Khanpur",
    "state": "Haryana",
    "province": "Ambala",
    "community": "Barara",
    "latitude": "30.2523",
    "longitude": "76.8746",
    "country": "India"
  },
  "133103": {
    "place": "Hangoli",
    "state": "Haryana",
    "province": "Yamuna Nagar",
    "community": "Ambala",
    "latitude": "30.2364",
    "longitude": "77.305",
    "country": "India"
  },
  "133104": {
    "place": "Pilkhani",
    "state": "Haryana",
    "province": "Ambala",
    "community": "Ambala",
    "latitude": "30.3669",
    "longitude": "76.9523",
    "country": "India"
  },
  "133201": {
    "place": "Sohata",
    "state": "Haryana",
    "province": "Ambala",
    "community": "Ambala",
    "latitude": "30.2013",
    "longitude": "76.9576",
    "country": "India"
  },
  "133202": {
    "place": "Saran",
    "state": "Haryana",
    "province": "Ambala",
    "community": "Ambala",
    "latitude": "30.3285",
    "longitude": "76.9422",
    "country": "India"
  },
  "133203": {
    "place": "Dhanaura",
    "state": "Haryana",
    "province": "Ambala",
    "community": "Barara",
    "latitude": "30.261",
    "longitude": "76.8209",
    "country": "India"
  },
  "133204": {
    "place": "Pipliwala",
    "state": "Haryana",
    "province": "Yamuna Nagar",
    "community": "Ambala",
    "latitude": "30.4204",
    "longitude": "77.2306",
    "country": "India"
  },
  "133205": {
    "place": "Kambassi",
    "state": "Haryana",
    "province": "Ambala",
    "community": "Ambala",
    "latitude": "30.3285",
    "longitude": "76.9422",
    "country": "India"
  },
  "133206": {
    "place": "Azizpur",
    "state": "Haryana",
    "province": "Yamuna Nagar",
    "community": "Ambala",
    "latitude": "30.2581",
    "longitude": "77.1493",
    "country": "India"
  },
  "133207": {
    "place": "Mullana Engineering College",
    "state": "Haryana",
    "province": "Ambala",
    "community": "Barara",
    "latitude": "30.277",
    "longitude": "77.0726",
    "country": "India"
  },
  "133301": {
    "place": "B.C.W. Suraj Pur",
    "state": "Haryana",
    "province": "Panchkula",
    "community": "Kalka",
    "latitude": "30.8398",
    "longitude": "76.9406",
    "country": "India"
  },
  "133302": {
    "place": "Kalka R.S.",
    "state": "Haryana",
    "province": "Panchkula",
    "community": "Kalka",
    "latitude": "30.8398",
    "longitude": "76.9406",
    "country": "India"
  },
  "134003": {
    "place": "Ambala City H.O",
    "state": "Haryana",
    "province": "Ambala",
    "community": "Ambala",
    "latitude": "30.2792",
    "longitude": "76.7113",
    "country": "India"
  },
  "134005": {
    "place": "Jandli",
    "state": "Haryana",
    "province": "Ambala",
    "community": "Ambala city",
    "latitude": "30.3571",
    "longitude": "76.7964",
    "country": "India"
  },
  "134007": {
    "place": "Dhulkot",
    "state": "Haryana",
    "province": "Ambala",
    "community": "Ambala",
    "latitude": "30.3722",
    "longitude": "76.8048",
    "country": "India"
  },
  "134008": {
    "place": "Durga Nagar",
    "state": "Haryana",
    "province": "Ambala",
    "community": "Ambala",
    "latitude": "30.2371",
    "longitude": "76.6718",
    "country": "India"
  },
  "134101": {
    "place": "H.M.T.Pinjore",
    "state": "Haryana",
    "province": "Panchkula",
    "community": "Kalka",
    "latitude": "30.7987",
    "longitude": "76.9182",
    "country": "India"
  },
  "134102": {
    "place": "Pinjore",
    "state": "Haryana",
    "province": "Panchkula",
    "community": "Kalka",
    "latitude": "30.7987",
    "longitude": "76.9182",
    "country": "India"
  },
  "134103": {
    "place": "I.T.B.P.  Bhanu",
    "state": "Haryana",
    "province": "Panchkula",
    "community": "Panchkula",
    "latitude": "30.7987",
    "longitude": "76.9182",
    "country": "India"
  },
  "134104": {
    "place": "C.R.P.F. Pinjore",
    "state": "Haryana",
    "province": "Panchkula",
    "community": "Kalka",
    "latitude": "30.7987",
    "longitude": "76.9182",
    "country": "India"
  },
  "134105": {
    "place": "Amravati Enclave",
    "state": "Haryana",
    "province": "Panchkula",
    "community": "Panchkula",
    "latitude": "30.7987",
    "longitude": "76.9182",
    "country": "India"
  },
  "134107": {
    "place": "Chandi Mandir",
    "state": "Haryana",
    "province": "Panchkula",
    "community": "Panchkula",
    "latitude": "30.7987",
    "longitude": "76.9182",
    "country": "India"
  },
  "134108": {
    "place": "G.K. Panchkula",
    "state": "Haryana",
    "province": "Panchkula",
    "community": "Panchkula",
    "latitude": "30.7987",
    "longitude": "76.9182",
    "country": "India"
  },
  "134109": {
    "place": "Devi Nagar",
    "state": "Haryana",
    "province": "Panchkula",
    "community": "Panchkula",
    "latitude": "30.7987",
    "longitude": "76.9182",
    "country": "India"
  },
  "134112": {
    "place": "Panchkula Sector 4",
    "state": "Haryana",
    "province": "Panchkula",
    "community": "Panchkula",
    "latitude": "30.686",
    "longitude": "76.9776",
    "country": "India"
  },
  "134113": {
    "place": "Sector 15 Panchkula",
    "state": "Haryana",
    "province": "Panchkula",
    "community": "Panchkula",
    "latitude": "30.686",
    "longitude": "76.9776",
    "country": "India"
  },
  "134114": {
    "place": "Mansa  Devi Sec-5",
    "state": "Haryana",
    "province": "Panchkula",
    "community": "Panchkula",
    "latitude": "30.686",
    "longitude": "76.9776",
    "country": "India"
  },
  "134116": {
    "place": "Sector-26 Panchkula",
    "state": "Haryana",
    "province": "Panchkula",
    "community": "Panchkula",
    "latitude": "30.686",
    "longitude": "76.9776",
    "country": "India"
  },
  "134117": {
    "place": "Sector 20 Panchkula",
    "state": "Haryana",
    "province": "Panchkula",
    "community": "Panchkula",
    "latitude": "30.686",
    "longitude": "76.9776",
    "country": "India"
  },
  "134118": {
    "place": "Kot",
    "state": "Haryana",
    "province": "Ambala",
    "community": "Ambala",
    "latitude": "30.2811",
    "longitude": "76.8374",
    "country": "India"
  },
  "134201": {
    "place": "Nasrauli",
    "state": "Haryana",
    "province": "Ambala",
    "community": "Ambala",
    "latitude": "30.4525",
    "longitude": "76.9494",
    "country": "India"
  },
  "134202": {
    "place": "Banaundi",
    "state": "Haryana",
    "province": "Ambala",
    "community": "Ambala",
    "latitude": "30.4478",
    "longitude": "77.0621",
    "country": "India"
  },
  "134203": {
    "place": "Kurali",
    "state": "Haryana",
    "province": "Ambala",
    "community": "Panchkula",
    "latitude": "30.4134",
    "longitude": "77.0814",
    "country": "India"
  },
  "134204": {
    "place": "Haripur",
    "state": "Haryana",
    "province": "Ambala",
    "community": "Panchkula",
    "latitude": "30.3053",
    "longitude": "76.8641",
    "country": "India"
  },
  "134205": {
    "place": "Morni",
    "state": "Haryana",
    "province": "Panchkula",
    "community": "Panchkula",
    "latitude": "30.6874",
    "longitude": "77.0885",
    "country": "India"
  },
  "135001": {
    "place": "Yamuna Nagar Railway Station",
    "state": "Haryana",
    "province": "Yamuna Nagar",
    "community": "Yamuna Nagar",
    "latitude": "30.0075",
    "longitude": "77.2266",
    "country": "India"
  },
  "135002": {
    "place": "Hafizpur",
    "state": "Haryana",
    "province": "Yamuna Nagar",
    "community": "Ambala",
    "latitude": "30.1117",
    "longitude": "77.1897",
    "country": "India"
  },
  "135003": {
    "place": "Balchhapar",
    "state": "Haryana",
    "province": "Yamuna Nagar",
    "community": "Ambala",
    "latitude": "30.1888",
    "longitude": "77.2857",
    "country": "India"
  },
  "135004": {
    "place": "Kalanaur",
    "state": "Haryana",
    "province": "Yamuna Nagar",
    "community": "Ambala",
    "latitude": "30.0822",
    "longitude": "77.3372",
    "country": "India"
  },
  "135021": {
    "place": "Khirzrabad  East",
    "state": "Haryana",
    "province": "Yamuna Nagar",
    "community": "Yamuna Nagar",
    "latitude": "30.274",
    "longitude": "77.4561",
    "country": "India"
  },
  "135101": {
    "place": "Sabapur",
    "state": "Haryana",
    "province": "Yamuna Nagar",
    "community": "Ambala",
    "latitude": "30.2364",
    "longitude": "77.305",
    "country": "India"
  },
  "135102": {
    "place": "Bilaspur",
    "state": "Haryana",
    "province": "Yamuna Nagar",
    "community": "Jagadhri",
    "latitude": "30.3045",
    "longitude": "77.3042",
    "country": "India"
  },
  "135103": {
    "place": "Balachaur",
    "state": "Haryana",
    "province": "Yamuna Nagar",
    "community": "Ambala",
    "latitude": "30.2244",
    "longitude": "77.3609",
    "country": "India"
  },
  "135106": {
    "place": "Kalesar",
    "state": "Haryana",
    "province": "Yamuna Nagar",
    "community": "Ambala",
    "latitude": "30.2602",
    "longitude": "77.4413",
    "country": "India"
  },
  "135133": {
    "place": "Topra Kalan",
    "state": "Haryana",
    "province": "Yamuna Nagar",
    "community": "Ambala",
    "latitude": "30.1268",
    "longitude": "77.1642",
    "country": "India"
  },
  "136020": {
    "place": "Chandlana",
    "state": "Haryana",
    "province": "Kaithal",
    "community": "Pundri",
    "latitude": "29.863",
    "longitude": "76.6351",
    "country": "India"
  },
  "136021": {
    "place": "Sanghrouli",
    "state": "Haryana",
    "province": "Kaithal",
    "community": "Pundri",
    "latitude": "29.8264",
    "longitude": "76.6446",
    "country": "India"
  },
  "136026": {
    "place": "Sirsal",
    "state": "Haryana",
    "province": "Kaithal",
    "community": "Pundri",
    "latitude": "29.689",
    "longitude": "76.6723",
    "country": "India"
  },
  "136027": {
    "place": "Patti Afgan",
    "state": "Haryana",
    "province": "Kaithal",
    "community": "Kaithal",
    "latitude": "29.7869",
    "longitude": "76.389",
    "country": "India"
  },
  "136030": {
    "place": "Thana",
    "state": "Haryana",
    "province": "Kurukshetra",
    "community": "Pehowa",
    "latitude": "29.9181",
    "longitude": "76.498",
    "country": "India"
  },
  "136033": {
    "place": "Kangthali",
    "state": "Haryana",
    "province": "Kaithal",
    "community": "Kaithal",
    "latitude": "29.9531",
    "longitude": "76.3484",
    "country": "India"
  },
  "136034": {
    "place": "Badsui",
    "state": "Haryana",
    "province": "Kaithal",
    "community": "Guhla",
    "latitude": "30.0728",
    "longitude": "76.3632",
    "country": "India"
  },
  "136035": {
    "place": "Guhla",
    "state": "Haryana",
    "province": "Kaithal",
    "community": "Guhla",
    "latitude": "30.0384",
    "longitude": "76.2989",
    "country": "India"
  },
  "136038": {
    "place": "Amin",
    "state": "Haryana",
    "province": "Kurukshetra",
    "community": "Thanesar",
    "latitude": "30.0451",
    "longitude": "76.7862",
    "country": "India"
  },
  "136042": {
    "place": "Saunch",
    "state": "Haryana",
    "province": "Kaithal",
    "community": "Pundri",
    "latitude": "29.7709",
    "longitude": "76.5924",
    "country": "India"
  },
  "136043": {
    "place": "Karora",
    "state": "Haryana",
    "province": "Kaithal",
    "community": "Pundri",
    "latitude": "29.6526",
    "longitude": "76.547",
    "country": "India"
  },
  "136044": {
    "place": "Rohera",
    "state": "Haryana",
    "province": "Kaithal",
    "community": "Rajaund",
    "latitude": "29.5632",
    "longitude": "76.4252",
    "country": "India"
  },
  "136117": {
    "place": "Mataur",
    "state": "Haryana",
    "province": "Kaithal",
    "community": "Kalayat",
    "latitude": "29.6208",
    "longitude": "76.2689",
    "country": "India"
  },
  "136118": {
    "place": "Sector 3 U E KKR",
    "state": "Haryana",
    "province": "Kurukshetra",
    "community": "Thanesar",
    "latitude": "30.1487",
    "longitude": "76.6856",
    "country": "India"
  },
  "136119": {
    "place": "Lukhi",
    "state": "Haryana",
    "province": "Kurukshetra",
    "community": "Thanesar",
    "latitude": "30.0316",
    "longitude": "76.7291",
    "country": "India"
  },
  "136128": {
    "place": "Pehowa",
    "state": "Haryana",
    "province": "Kurukshetra",
    "community": "Pehowa",
    "latitude": "29.979",
    "longitude": "76.5825",
    "country": "India"
  },
  "136129": {
    "place": "Thaska Miranji",
    "state": "Haryana",
    "province": "Kurukshetra",
    "community": "Pehowa",
    "latitude": "30.1084",
    "longitude": "76.695",
    "country": "India"
  },
  "136130": {
    "place": "Jhansa",
    "state": "Haryana",
    "province": "Kurukshetra",
    "community": "Pehowa",
    "latitude": "30.116",
    "longitude": "76.7414",
    "country": "India"
  },
  "136131": {
    "place": "Pipli",
    "state": "Haryana",
    "province": "Kurukshetra",
    "community": "Thanesar",
    "latitude": "29.9776",
    "longitude": "76.893",
    "country": "India"
  },
  "136132": {
    "place": "Ladwa",
    "state": "Haryana",
    "province": "Kurukshetra",
    "community": "Ladwa",
    "latitude": "29.9935",
    "longitude": "77.0456",
    "country": "India"
  },
  "136135": {
    "place": "Majri Mohalla Shahabad",
    "state": "Haryana",
    "province": "Kurukshetra",
    "community": "shahabad",
    "latitude": "30.1502",
    "longitude": "76.8588",
    "country": "India"
  },
  "136136": {
    "place": "Ajrawar",
    "state": "Haryana",
    "province": "Kurukshetra",
    "community": "Shahbad",
    "latitude": "30.1464",
    "longitude": "76.6909",
    "country": "India"
  },
  "136156": {
    "place": "Bir Kalwa",
    "state": "Haryana",
    "province": "Kurukshetra",
    "community": "Thanesar",
    "latitude": "30.1071",
    "longitude": "76.9716",
    "country": "India"
  },
  "140001": {
    "place": "Ropar H.O",
    "state": "Punjab",
    "province": "Rupnagar",
    "community": "Rupnagar",
    "latitude": "31.0624",
    "longitude": "76.4894",
    "country": "India"
  },
  "140101": {
    "place": "Dhangrali",
    "state": "Punjab",
    "province": "Rupnagar",
    "community": "Rupnagar",
    "latitude": "30.7627",
    "longitude": "76.5306",
    "country": "India"
  },
  "140102": {
    "place": "Kainaur",
    "state": "Punjab",
    "province": "Ropar",
    "community": "NA",
    "latitude": "30.835",
    "longitude": "76.5021",
    "country": "India"
  },
  "140103": {
    "place": "Mundhon Kalan",
    "state": "Punjab",
    "province": "Mohali",
    "community": "Kharar",
    "latitude": "30.8316",
    "longitude": "76.5726",
    "country": "India"
  },
  "140108": {
    "place": "Purkhali",
    "state": "Punjab",
    "province": "Rupnagar",
    "community": "Rupnagar",
    "latitude": "30.9365",
    "longitude": "76.6332",
    "country": "India"
  },
  "140109": {
    "place": "Khizrabad West",
    "state": "Punjab",
    "province": "Mohali",
    "community": "Khizrabad West",
    "latitude": "30.8782",
    "longitude": "76.6763",
    "country": "India"
  },
  "140110": {
    "place": "Siswan",
    "state": "Punjab",
    "province": "Mohali",
    "community": "Ropar",
    "latitude": "30.865",
    "longitude": "76.746",
    "country": "India"
  },
  "140111": {
    "place": "Jatana",
    "state": "Punjab",
    "province": "Rupnagar",
    "community": "Rupnagar",
    "latitude": "30.923",
    "longitude": "76.4129",
    "country": "India"
  },
  "140112": {
    "place": "Bassi Gujran",
    "state": "Punjab",
    "province": "Mohali",
    "community": "Ropar",
    "latitude": "30.5548",
    "longitude": "76.8747",
    "country": "India"
  },
  "140113": {
    "place": "Ghanauli",
    "state": "Punjab",
    "province": "Rupnagar",
    "community": "Rupnagar",
    "latitude": "31.0247",
    "longitude": "76.6027",
    "country": "India"
  },
  "140114": {
    "place": "Bharatgarh Canal Colony",
    "state": "Punjab",
    "province": "Rupnagar",
    "community": "Rupnagar",
    "latitude": "31.0982",
    "longitude": "76.6098",
    "country": "India"
  },
  "140115": {
    "place": "Massewal",
    "state": "Punjab",
    "province": "Rupnagar",
    "community": "Anandpur Sahib",
    "latitude": "31.0624",
    "longitude": "76.4894",
    "country": "India"
  },
  "140116": {
    "place": "Kotla Power House",
    "state": "Punjab",
    "province": "Rupnagar",
    "community": "Anandpur Sahib",
    "latitude": "31.0624",
    "longitude": "76.4894",
    "country": "India"
  },
  "140117": {
    "place": "Basali",
    "state": "Punjab",
    "province": "Rupnagar",
    "community": "Anandpur Sahib",
    "latitude": "31.0624",
    "longitude": "76.4894",
    "country": "India"
  },
  "140118": {
    "place": "Agampur",
    "state": "Punjab",
    "province": "Ropar",
    "community": "Ropar",
    "latitude": "31.0624",
    "longitude": "76.4894",
    "country": "India"
  },
  "140119": {
    "place": "Jhandian",
    "state": "Punjab",
    "province": "Rupnagar",
    "community": "Anandpur Sahib",
    "latitude": "31.1115",
    "longitude": "76.5321",
    "country": "India"
  },
  "140123": {
    "place": "Mangewal",
    "state": "Punjab",
    "province": "Rupnagar",
    "community": "Anandpur Sahib",
    "latitude": "31.2602",
    "longitude": "76.4783",
    "country": "India"
  },
  "140124": {
    "place": "Labour Colony Nangal",
    "state": "Punjab",
    "province": "Rupnagar",
    "community": "Anandpur Sahib",
    "latitude": "31.3897",
    "longitude": "76.3757",
    "country": "India"
  },
  "140125": {
    "place": "Manakpur",
    "state": "Punjab",
    "province": "Rupnagar",
    "community": "Anandpur Sahib",
    "latitude": "31.0624",
    "longitude": "76.4894",
    "country": "India"
  },
  "140126": {
    "place": "Bhallan",
    "state": "Punjab",
    "province": "Ropar",
    "community": "Ropar",
    "latitude": "30.9245",
    "longitude": "76.4479",
    "country": "India"
  },
  "140133": {
    "place": "Khamera",
    "state": "Punjab",
    "province": "Rupnagar",
    "community": "Anandpur Sahib",
    "latitude": "31.0624",
    "longitude": "76.4894",
    "country": "India"
  },
  "140201": {
    "place": "Mubarakpur",
    "state": "Punjab",
    "province": "Mohali",
    "community": "Dera Bassi",
    "latitude": "30.6062",
    "longitude": "76.8363",
    "country": "India"
  },
  "140301": {
    "place": "Kharar",
    "state": "Punjab",
    "province": "Mohali",
    "community": "Kharar",
    "latitude": "30.7463",
    "longitude": "76.6469",
    "country": "India"
  },
  "140306": {
    "place": "Manauli",
    "state": "Punjab",
    "province": "Mohali",
    "community": "S.A.S.Nagar",
    "latitude": "30.6444",
    "longitude": "76.7217",
    "country": "India"
  },
  "140307": {
    "place": "Landran",
    "state": "Punjab",
    "province": "Mohali",
    "community": "S.A.S.Nagar",
    "latitude": "30.6946",
    "longitude": "76.6651",
    "country": "India"
  },
  "140308": {
    "place": "Sohana",
    "state": "Punjab",
    "province": "Mohali",
    "community": "S.A.S.Nagar",
    "latitude": "30.6887",
    "longitude": "76.7066",
    "country": "India"
  },
  "140401": {
    "place": "KSM Rajpura",
    "state": "Punjab",
    "province": "Patiala",
    "community": "Rajpura",
    "latitude": "30.2803",
    "longitude": "76.3516",
    "country": "India"
  },
  "140402": {
    "place": "Pola",
    "state": "Punjab",
    "province": "Patiala",
    "community": "Rajpura",
    "latitude": "30.2803",
    "longitude": "76.3516",
    "country": "India"
  },
  "140405": {
    "place": "Mulanpur Kalan",
    "state": "Punjab",
    "province": "Fatehgarh Sahib",
    "community": "Rajpura",
    "latitude": "30.615",
    "longitude": "76.3142",
    "country": "India"
  },
  "140406": {
    "place": "Mahadian",
    "state": "Punjab",
    "province": "Patiala",
    "community": "Sirhind",
    "latitude": "30.2803",
    "longitude": "76.3516",
    "country": "India"
  },
  "140407": {
    "place": "Fatehgarh Sahib",
    "state": "Punjab",
    "province": "Fatehgarh Sahib",
    "community": "Fatehgarh Sahib",
    "latitude": "30.5733",
    "longitude": "76.5092",
    "country": "India"
  },
  "140408": {
    "place": "Khera",
    "state": "Punjab",
    "province": "Fatehgarh Sahib",
    "community": "Sirhind",
    "latitude": "30.6017",
    "longitude": "76.4877",
    "country": "India"
  },
  "140412": {
    "place": "Bazidpur",
    "state": "Punjab",
    "province": "Patiala",
    "community": "Patiala",
    "latitude": "30.2883",
    "longitude": "76.3006",
    "country": "India"
  },
  "140413": {
    "place": "Gharuan",
    "state": "Punjab",
    "province": "Mohali",
    "community": "Kharar",
    "latitude": "30.7197",
    "longitude": "76.5439",
    "country": "India"
  },
  "140417": {
    "place": "Thuha",
    "state": "Punjab",
    "province": "Patiala",
    "community": "Rajpura",
    "latitude": "30.5004",
    "longitude": "76.6627",
    "country": "India"
  },
  "140501": {
    "place": "Rani Majra",
    "state": "Punjab",
    "province": "Mohali",
    "community": "Derabassi",
    "latitude": "30.4501",
    "longitude": "76.8864",
    "country": "India"
  },
  "140506": {
    "place": "Dappar Ad",
    "state": "Punjab",
    "province": "Mohali",
    "community": "Dera Bassi",
    "latitude": "30.6763",
    "longitude": "76.7411",
    "country": "India"
  },
  "140507": {
    "place": "Devinagar",
    "state": "Punjab",
    "province": "Mohali",
    "community": "Derabassi",
    "latitude": "30.5631",
    "longitude": "76.8376",
    "country": "India"
  },
  "140601": {
    "place": "Ramgarh",
    "state": "Punjab",
    "province": "Patiala",
    "community": "Nabha",
    "latitude": "30.5243",
    "longitude": "76.2485",
    "country": "India"
  },
  "140602": {
    "place": "Khera Gajju",
    "state": "Punjab",
    "province": "Patiala",
    "community": "Derabassi",
    "latitude": "30.5803",
    "longitude": "76.6309",
    "country": "India"
  },
  "140603": {
    "place": "Zirakpur",
    "state": "Punjab",
    "province": "Mohali",
    "community": "Rajpura",
    "latitude": "30.6562",
    "longitude": "76.8209",
    "country": "India"
  },
  "140604": {
    "place": "Baltana",
    "state": "Punjab",
    "province": "Mohali",
    "community": "Dera Bassi",
    "latitude": "30.6763",
    "longitude": "76.7411",
    "country": "India"
  },
  "140701": {
    "place": "Mandauli",
    "state": "Punjab",
    "province": "Patiala",
    "community": "Rajpura",
    "latitude": "30.3864",
    "longitude": "76.5762",
    "country": "India"
  },
  "140702": {
    "place": "Ghanur",
    "state": "Punjab",
    "province": "Patiala",
    "community": "Patiala",
    "latitude": "30.3867",
    "longitude": "76.4902",
    "country": "India"
  },
  "140802": {
    "place": "Lohar Majra Khurd",
    "state": "Punjab",
    "province": "Patiala",
    "community": "Khamanon",
    "latitude": "30.2803",
    "longitude": "76.3516",
    "country": "India"
  },
  "140901": {
    "place": "Rani Majra",
    "state": "Punjab",
    "province": "Mohali",
    "community": "Ropar",
    "latitude": "30.8071",
    "longitude": "76.6995",
    "country": "India"
  },
  "141001": {
    "place": "Sarabha Nagar",
    "state": "Punjab",
    "province": "Ludhiana",
    "community": "Ludhiana",
    "latitude": "30.8047",
    "longitude": "75.8361",
    "country": "India"
  },
  "141002": {
    "place": "Model Town",
    "state": "Punjab",
    "province": "Ludhiana",
    "community": "Ludhiana",
    "latitude": "30.8047",
    "longitude": "75.8361",
    "country": "India"
  },
  "141003": {
    "place": "Millerganj",
    "state": "Punjab",
    "province": "Ludhiana",
    "community": "Ludhiana",
    "latitude": "30.8047",
    "longitude": "75.8361",
    "country": "India"
  },
  "141004": {
    "place": "P.A.U.",
    "state": "Punjab",
    "province": "Ludhiana",
    "community": "Ludhiana",
    "latitude": "30.8047",
    "longitude": "75.8361",
    "country": "India"
  },
  "141006": {
    "place": "Gne College",
    "state": "Punjab",
    "province": "Ludhiana",
    "community": "Ludhiana",
    "latitude": "30.8047",
    "longitude": "75.8361",
    "country": "India"
  },
  "141007": {
    "place": "Basti Jodhewal",
    "state": "Punjab",
    "province": "Ludhiana",
    "community": "Ludhiana",
    "latitude": "30.9724",
    "longitude": "75.9345",
    "country": "India"
  },
  "141008": {
    "place": "Netaji Nagar",
    "state": "Punjab",
    "province": "Ludhiana",
    "community": "Ludhiana",
    "latitude": "30.8047",
    "longitude": "75.8361",
    "country": "India"
  },
  "141010": {
    "place": "Focal Point",
    "state": "Punjab",
    "province": "Ludhiana",
    "community": "Ludhiana",
    "latitude": "30.8485",
    "longitude": "76.141",
    "country": "India"
  },
  "141012": {
    "place": "Rajguru Nagar",
    "state": "Punjab",
    "province": "Ludhiana",
    "community": "Ludhiana",
    "latitude": "30.8485",
    "longitude": "76.141",
    "country": "India"
  },
  "141013": {
    "place": "Passi Nagar",
    "state": "Punjab",
    "province": "Ludhiana",
    "community": "Ludhiana",
    "latitude": "30.8485",
    "longitude": "76.141",
    "country": "India"
  },
  "141014": {
    "place": "Daba Road",
    "state": "Punjab",
    "province": "Ludhiana",
    "community": "Ludhiana",
    "latitude": "30.8646",
    "longitude": "75.9185",
    "country": "India"
  },
  "141015": {
    "place": "Mundian Kalan",
    "state": "Punjab",
    "province": "Ludhiana",
    "community": "Ludhiana",
    "latitude": "30.8975",
    "longitude": "75.9316",
    "country": "India"
  },
  "141016": {
    "place": "Lohora",
    "state": "Punjab",
    "province": "Ludhiana",
    "community": "NA",
    "latitude": "30.8047",
    "longitude": "75.8361",
    "country": "India"
  },
  "141017": {
    "place": "Jugiana",
    "state": "Punjab",
    "province": "Ludhiana",
    "community": "Ludhiana",
    "latitude": "30.8549",
    "longitude": "75.9405",
    "country": "India"
  },
  "141101": {
    "place": "Dakha Mandi",
    "state": "Punjab",
    "province": "Ludhiana",
    "community": "Ludhiana",
    "latitude": "30.8381",
    "longitude": "75.6614",
    "country": "India"
  },
  "141102": {
    "place": "Dewatwal",
    "state": "Punjab",
    "province": "Ludhiana",
    "community": "Ludhiana",
    "latitude": "30.885",
    "longitude": "75.7183",
    "country": "India"
  },
  "141103": {
    "place": "Khandur",
    "state": "Punjab",
    "province": "Ludhiana",
    "community": "Khanna",
    "latitude": "30.7984",
    "longitude": "75.7216",
    "country": "India"
  },
  "141104": {
    "place": "Ghuman",
    "state": "Punjab",
    "province": "Ludhiana",
    "community": "Ludhiana",
    "latitude": "30.8047",
    "longitude": "75.8361",
    "country": "India"
  },
  "141105": {
    "place": "Abbowal",
    "state": "Punjab",
    "province": "Ludhiana",
    "community": "Raikot",
    "latitude": "30.8047",
    "longitude": "75.8361",
    "country": "India"
  },
  "141106": {
    "place": "Halwara Aerodrome",
    "state": "Punjab",
    "province": "Ludhiana",
    "community": "Ludhiana",
    "latitude": "30.9228",
    "longitude": "75.6892",
    "country": "India"
  },
  "141107": {
    "place": "Halwara",
    "state": "Punjab",
    "province": "Ludhiana",
    "community": "Ludhiana",
    "latitude": "30.7251",
    "longitude": "75.6425",
    "country": "India"
  },
  "141108": {
    "place": "Leel",
    "state": "Punjab",
    "province": "Ludhiana",
    "community": "Ludhiana",
    "latitude": "30.9684",
    "longitude": "75.5535",
    "country": "India"
  },
  "141109": {
    "place": "Tajpura",
    "state": "Punjab",
    "province": "Ludhiana",
    "community": "Ludhiana",
    "latitude": "30.8047",
    "longitude": "75.8361",
    "country": "India"
  },
  "141110": {
    "place": "Purain",
    "state": "Punjab",
    "province": "Ludhiana",
    "community": "Ludhiana",
    "latitude": "30.9207",
    "longitude": "75.619",
    "country": "India"
  },
  "141112": {
    "place": "Kohara",
    "state": "Punjab",
    "province": "Ludhiana",
    "community": "Ludhiana",
    "latitude": "30.8674",
    "longitude": "76.0058",
    "country": "India"
  },
  "141113": {
    "place": "Kot Gangu Rai",
    "state": "Punjab",
    "province": "Ludhiana",
    "community": "Ludhiana",
    "latitude": "30.8625",
    "longitude": "76.0919",
    "country": "India"
  },
  "141114": {
    "place": "Madpur",
    "state": "Punjab",
    "province": "Ludhiana",
    "community": "Ludhiana",
    "latitude": "30.8237",
    "longitude": "76.1254",
    "country": "India"
  },
  "141115": {
    "place": "Machhiwara",
    "state": "Punjab",
    "province": "Ludhiana",
    "community": "Samrala",
    "latitude": "30.9156",
    "longitude": "76.2002",
    "country": "India"
  },
  "141116": {
    "place": "Dhandran",
    "state": "Punjab",
    "province": "Ludhiana",
    "community": "Ludhiana",
    "latitude": "30.8",
    "longitude": "75.8529",
    "country": "India"
  },
  "141117": {
    "place": "Hans Kalan",
    "state": "Punjab",
    "province": "Ludhiana",
    "community": "Payal",
    "latitude": "30.8047",
    "longitude": "75.8361",
    "country": "India"
  },
  "141118": {
    "place": "Dehlon",
    "state": "Punjab",
    "province": "Ludhiana",
    "community": "Ludhiana",
    "latitude": "30.742",
    "longitude": "75.8486",
    "country": "India"
  },
  "141119": {
    "place": "Babarpur",
    "state": "Punjab",
    "province": "Ludhiana",
    "community": "Ludhiana",
    "latitude": "30.8047",
    "longitude": "75.8361",
    "country": "India"
  },
  "141120": {
    "place": "Nandpur",
    "state": "Punjab",
    "province": "Ludhiana",
    "community": "Ludhiana",
    "latitude": "30.8414",
    "longitude": "75.9658",
    "country": "India"
  },